"","peak_id","peak_name","host_contries","alternative_names","height_m","height_ft","location","region","restrictions","climb_status","is_open","is_unlisted","is_trekking","trek_year","first_asc_yr","first_asc_season","first_asc_date","countries","first_summiters","summiters_notes","lat","long"
"1","ACHN","Aichyn","Nepal only","Aychin, Ashvin",6055,19865,"Nalakankar/Chandi/Changla","Far West-Kanjiroba","Opened in 2014","Climbed",1,0,0,0,2015,"Autumn","Sep 03","Japan","Hiroki Senda, et al","",NA,NA
"2","AGLE","Agole East","Nepal only","Angole East",6675,21900,"Rolwaling","Khumbu-Rolwaling-Makalu","Opened in 2014","Unclimbed",1,0,0,0,0,"All","","","Unclimbed","",NA,NA
"3","AMAD","Ama Dablam","Nepal only","Amai Dablang",6814,22356,"Khumbu","Khumbu-Rolwaling-Makalu","","Climbed",1,0,0,0,1961,"Spring","Mar 13","New Zealand, USA, UK","Mike Gill, Wally Romanes, Barry Bishop, Michael Ward","",27.8621001,86.8604289
"4","AMOT","Amotsang","Nepal only","Amatson",6393,20974,"Damodar","Annapurna-Damodar-Peri","Opened in 2002","Climbed",1,0,0,0,2019,"Autumn","Oct 24","Germany","Jost Kobusch","Possibly climbed earlier",NA,NA
"5","AMPG","Amphu Gyabjen","Nepal only","",5630,18471,"Khumbu","Khumbu-Rolwaling-Makalu","Opened in 2002","Climbed",1,0,0,0,1953,"Spring","Apr 11","UK","John Hunt, Tom Bourdillon","",27.8812212,86.8687897
"6","AMPH","Amphu I","Nepal only","",6740,22113,"Khumbu","Khumbu-Rolwaling-Makalu","Opened in 2002","Climbed",1,0,0,0,2013,"Autumn","Oct 09","S Korea","Ahn Il-Evn, An Chi-Young, Kim Young-Mi, Oh Young-Hoon","",NA,NA
"7","AMPM","Amphu Middle","Nepal only","Amphu North",6202,20348,"Khumbu","Khumbu-Rolwaling-Makalu","Requires permit for Amphu I","Climbed",0,1,0,0,2008,"Spring","Apr 20","Germany","Olaf Rieck, Alexander Graeber","",NA,NA
"8","ANID","Anidesh Chuli","Nepal only","White Wave Peak",6808,22336,"Kangchenjunga/Simhalila","Kangchenjunga-Janak","Opened in 2002","Unclimbed",1,0,0,0,0,"All","","","Unclimbed","",NA,NA
"9","ANN1","Annapurna I","Nepal only","",8091,26545,"Annapurna","Annapurna-Damodar-Peri","","Climbed",1,0,0,0,1950,"Spring","Jun 03","France","Maurice Herzog, Louis Lachenal","",28.5962553,83.8270789
"10","ANN2","Annapurna II","Nepal only","",7937,26040,"Annapurna","Annapurna-Damodar-Peri","","Climbed",1,0,0,0,1960,"Spring","May 17","UK, Nepal","Richard Grant, Chris Bonington, Ang Nyima Sherpa","",28.5349707,84.1218222
"11","ANN3","Annapurna III","Nepal only","",7555,24787,"Annapurna","Annapurna-Damodar-Peri","","Climbed",1,0,0,0,1961,"Spring","May 06","India","Mohan S. Kohli, Sonam Gyatso, Sonam Girmi","",28.5853509,83.9891091
"12","ANN4","Annapurna IV","Nepal only","",7525,24688,"Annapurna","Annapurna-Damodar-Peri","","Climbed",1,0,0,0,1955,"Spring","May 30","W Germany","Heinz Steinmetz, Harald Biller, Juergen Wellenkamp","",28.5368932,84.0835623
"13","ANNE","Annapurna I East","Nepal only","",8026,26332,"Annapurna","Annapurna-Damodar-Peri","Requires permit for Annapurna I","Climbed",1,0,0,0,1974,"Spring","Apr 29","Spain","Jose Manuel Anglada Nieto, Jorge Pons Sangines, Emilio Givis Abad","",-33.0000006,27.8761869
"14","ANNM","Annapurna I Middle","Nepal only","",8051,26414,"Annapurna","Annapurna-Damodar-Peri","Requires permit for Annapurna I","Climbed",1,0,0,0,1980,"Autumn","Oct 03","W Germany","Udo Boening, Ludwig Greissl, Heinz Oberrauch","",28.5110773,83.6615219
"15","ANNS","Annapurna South","Nepal only","Annapurna Dakshin, Moditse",7219,23684,"Annapurna","Annapurna-Damodar-Peri","","Climbed",1,0,0,0,1964,"Autumn","Oct 15","Japan, Nepal","Shiochiro Uyeo, Mingma Tsering Sherpa","",28.5183959,83.8063433
"16","APIM","Api Main","Nepal only","",7132,23399,"Api/Byas Risi/Guras","Far West-Kanjiroba","","Climbed",1,0,0,0,1960,"Spring","May 10","Japan, Nepal","Katsutoshi Hirabayashi, Gyaltsen Norbu Sherpa","1st ascent claimed by UK (H. S. Landor) in 1899 but probably reached only 5000m",50.4653763,4.1953511
"17","APIW","Api West","Nepal only","",7076,23215,"Api/Byas Risi/Guras","Far West-Kanjiroba","","Unclimbed",1,0,0,0,0,"All","","","Unclimbed","",7.7698,8.1578
"18","ARDN","Ardang","Nepal only","Chyoro Ri",6034,19797,"Nalakankar/Chandi/Changla","Far West-Kanjiroba","Opened in 2014","Climbed",1,0,0,0,2019,"Autumn","Nov 13","Canada","Bryce Brown, Sunny Twelker","",NA,NA
"19","ARNK","Arniko Chuli","Nepal & China","Araniko Chuli",6034,19797,"Mukut/Mustang","Dhaulagiri-Mukut","Opened in 2002","Climbed",1,0,0,0,2002,"Summer","Jul 10","Japan, Nepal","Tamotsu Ohnishi, Ang Phurba Sherpa, Dikki Sherpa","",NA,NA
"20","ASAJ","Asajya Tuppa","Nepal & China","",6265,20554,"Nalakankar/Chandi/Changla","Far West-Kanjiroba","Opened in 2014","Unclimbed",1,0,0,0,0,"All","","","Unclimbed","",NA,NA
"21","BAMO","Bamongo","Nepal & China","",6406,21017,"Rolwaling","Khumbu-Rolwaling-Makalu","Opened in 2002","Climbed",1,0,0,0,2013,"Autumn","Oct 30","Nepal, China","Mingma Gyalje Sherpa, Yong Liu, Pema Chhiring/Chhiri Sherpa","",NA,NA
"22","BARU","Baruntse","Nepal only","",7152,23465,"Khumbu","Khumbu-Rolwaling-Makalu","","Climbed",1,0,0,0,1954,"Spring","May 29","New Zealand","Colin Todd, Geoff Harrow","",27.8720615,86.9796489
"23","BAUD","Baudha","Nepal only","",6672,21890,"Manaslu/Mansiri","Manaslu-Ganesh","","Climbed",1,0,0,0,1970,"Spring","May 02","Japan","Yoshiyuki Kobayashi, Kiyoyasu Shibata","",27.7203406,85.3611116
"24","BEDG","Beding Go","Nepal & China","Bedding Go",6125,20095,"Rolwaling","Khumbu-Rolwaling-Makalu","Opened in 2014","Climbed",1,0,0,0,2015,"Autumn","Oct 21","Nepal, Canada, Brazil, Ireland","Mingma Tshering/Tsiri Sherpa, Dean Carriere, Dino De Almeida Camargo, Cian O'Brolchain, Nima Gyalzen Sherpa, Pasang Tenzing Sherpa, Tshering Pemba Sherpa","",NA,NA
"25","BHEM","Bhemdang Ri","Nepal only","Morimoto",6150,20177,"Langtang","Langtang-Jugal","","Climbed",1,0,0,0,1964,"Spring","May 10","Japan, Nepal","Tetsuya Kondo, Soshiro Sasaki, Mingma Tshering Sherpa","",28.2721381,85.6635329
"26","BHRI","Bhrikuti","Nepal only","Damodar Himal",6476,21247,"Damodar","Annapurna-Damodar-Peri","Opened in 2014","Climbed",1,0,0,0,1982,"Spring","May 18","Japan, Nepal","Takashi Sakuma, Masanobu Tsuchiya, Tashi Jangbu Sherpa","1-3rd ascents claimed",27.692718,82.9554791880518
"27","BHRS","Bhrikuti Shail","Nepal & China","",6361,20869,"Damodar","Annapurna-Damodar-Peri","","Climbed",1,0,0,0,2005,"Spring","May 16","France, Nepal","Paulo Grobel, Denis Flaven, Bikram Singh","",28.893082,84.2261556
"28","BHUL","Bhulu Lhasa","Nepal only","",6102,20020,"Kanjiroba","Far West-Kanjiroba","Opened in 2014","Climbed",1,0,0,0,1964,"Autumn","Oct 31","UK, Nepal","John Tyson, John Cole, Robert Kendall, Mingma Sherpa","",NA,NA
"29","BIJO","Bijora Hiunchuli","Nepal only","",6111,20049,"Kanjiroba","Far West-Kanjiroba","Opened in 2014","Unclimbed",1,0,0,0,0,"All","","","Unclimbed","",NA,NA
"30","BOBA","Bobaye","Nepal only","",6808,22336,"Api/Byas Risi/Guras","Far West-Kanjiroba","","Climbed",1,0,0,0,1996,"Autumn","Nov 02","Slovenia","Tomaz Humar","",10.4330167,21.27055
"31","BOKT","Boktoh","Nepal only","Bokta",6114,20059,"Kangchenjunga/Simhalila","Kangchenjunga-Janak","Opened in 2002","Climbed",0,0,1,0,1991,"Spring","Apr 10","Yugoslavia","Marko Prezelj, Uros Rupar, Andrej Stremfelj","Boktoh possibly climbed in 1959 by Lionel Terray and Rene Desmaison during exploration of Jannu SW side",27.6204953,88.0063936
"32","BTAK","Bhairab Takura","Nepal & China","Madiya",6799,22306,"Jugal","Langtang-Jugal","","Climbed",1,0,0,0,1960,"Spring","May 07","Japan, Nepal","Kunitoshi Ishihara, Yukihito Kato, Pasang Phutar Sherpa (I)","",NA,NA
"33","BURK","Burke Kang","Nepal & China","Burke Khang",6942,22776,"Khumbu","Khumbu-Rolwaling-Makalu","Opened in 2014","Climbed",1,0,0,0,2017,"Autumn","Oct 05","Ireland, Nepal","Noel Hanna, Samden Bhote, Nanda Dorje Sherpa, Pemba Tshering (Maila) Sherpa","",43.1358279,-89.2762273
"34","CBAM","Chhopa Bamare","Nepal & China","Chomo Pamari",6109,20043,"Rolwaling","Khumbu-Rolwaling-Makalu","Opened in 2014","Climbed",1,0,0,0,2019,"Winter","Feb 28","USA, France","John Kelley, Benjamin Billet","",NA,NA
"35","CHAB","Chabuk","Nepal & China","Tsajirip",6792,22283,"Janak/Ohmi Kangri","Kangchenjunga-Janak","Opened in 2002","Unclimbed",1,0,0,0,0,"All","","","Unclimbed","",27.8965508,87.9998611
"36","CHAG","Chago","Nepal & China","",6893,22615,"Makalu","Khumbu-Rolwaling-Makalu","Opened in 2002","Climbed",1,0,0,0,1954,"Spring","May 29","New Zealand, Nepal","Michael Ball, Urkien Sherpa","",27.9262151,87.0543761
"37","CHAK","Chako","Nepal only","",6704,21995,"Damodar","Annapurna-Damodar-Peri","Opened in 2003","Climbed",1,0,0,0,2007,"Summer","Jul 24","Japan, Nepal","Kazhisa Kamisaka, Akio Omura, Hari Bahadur Chaulagai, Ang Phuri Lama","",-20.4289101,32.6809123
"38","CHAM","Chamlang","Nepal only","",7321,24019,"Khumbu","Khumbu-Rolwaling-Makalu","","Climbed",1,0,0,0,1962,"Spring","May 31","Japan, Nepal","So Anma, Pasang Phutar Sherpa (I)","",27.7772801,86.98151
"39","CHAN","Changla","Nepal & China","Changla Himal",6563,21532,"Nalakankar/Chandi/Changla","Far West-Kanjiroba","","Climbed",1,0,0,0,2010,"Autumn","Sep 27","Japan","Hirofumi Kobayashi, Seiya Nakasukasa, Yuta Shibayama, Naoki Yamaguchi","Climbed illegally by Sean Burch in October 2016?",30.3025938,82.1282859
"40","CHAW","Chaw Peak","Nepal & China","Chaw East",6404,21010,"Janak/Ohmi Kangri","Kangchenjunga-Janak","Opened in 2002","Unclimbed",1,0,0,0,0,"All","","","Unclimbed","",NA,NA
"41","CHEK","Chekigo","Nepal & China","",6121,20082,"Rolwaling","Khumbu-Rolwaling-Makalu","Opened in 2002 as trekking peak","Climbed",0,0,1,2002,2005,"Spring","May 15","UK, Switzerland","Bruce Normand, Oliver von Rotz","1st known ascent",NA,NA
"42","CHEO","Cheo Himal","Nepal & China","",6820,22375,"Peri","Annapurna-Damodar-Peri","","Climbed",1,0,0,0,1991,"Autumn","Oct 13","Japan, Nepal","Dambar Bahadur Gurung, Shigeki Imoto, Ful Bahadur Rai, Pasang Tshering Sherpa","",NA,NA
"43","CHIV","Chhiv Himal","Nepal only","Chhib Himal",6650,21818,"Damodar","Annapurna-Damodar-Peri","Opened in 2002","Climbed",1,0,0,0,2004,"Autumn","Sep 18","Japan","Takeshi Wada, Mitsuhiro Koseki, Yubo Shibata, Takeo Yoshinaga","",28.8736293,84.1598835
"44","CHKA","Chamar Kang","Nepal only","Chharka, Kangtega",6060,19882,"Mukut/Mustang","Dhaulagiri-Mukut","","Climbed",0,1,0,0,2007,"Autumn","Sep 21","Japan, Nepal","Tamotsu Ohnishi, Toshitsugi Irisawa, Koichi Kato, Chhepa Sherpa","",28.1986704,89.7695918
"45","CHMN","Chamar North","Nepal only","Peak 23",7165,23507,"Ganesh/Shringi","Manaslu-Ganesh","Opened in 2014","Climbed",1,0,0,0,1953,"Spring","Jun 05","New Zealand, Nepal","Maurice Bishop, Nyamgel Sherpa","",35.4623305,-80.6827327
"46","CHMR","Chamar","Nepal only","Shringi Himal",7161,23494,"Ganesh/Shringi","Manaslu-Ganesh","","Unclimbed",1,0,0,0,0,"All","","","Unclimbed?","",28.5550852,84.9437234
"47","CHND","Chandi Himal","Nepal & China","",6142,20151,"Nalakankar/Chandi/Changla","Far West-Kanjiroba","Opened in 2002","Unclimbed",1,0,0,0,0,"All","","","Unclimbed","Climbed illegally by Sean Burch in October 2016?",NA,NA
"48","CHNG","Changdi","Nepal & China","",6623,21729,"Kanti/Palchung","Far West-Kanjiroba","Opened in 2014","Unclimbed",1,0,0,0,0,"All","","","Unclimbed","",23.1120426,113.2512622
"49","CHOB","Chobuje","Nepal only","Chobutse, Tsoboje",6686,21936,"Rolwaling","Khumbu-Rolwaling-Makalu","","Climbed",1,0,0,0,1972,"Spring","Apr 24","W Germany","Wolfgang Weinzierl, Peter Vogler, Gustav Harder, Klaus Harder","Illegal ascent",NA,NA
"50","CHOL","Cholatse","Nepal only","Tsolatse, Jobo Lhaptshan",6423,21073,"Khumbu","Khumbu-Rolwaling-Makalu","Converted to trekking peak in 2002","Climbed",0,0,1,2002,1982,"Spring","Apr 22","USA, UK","John Roskelley, Galen Rowell, Vern Clevenger, Bill O'Connor","",27.9029624,86.7687987
"51","CHOP","Cho Polu","Nepal only","",6700,21982,"Khumbu","Khumbu-Rolwaling-Makalu","","Climbed",1,0,0,0,1984,"Autumn","Nov","Spain","Nil Bohigas Martorell","1st official ascent Nov 12, 1999 by Markus Walter, Guenter Jung, Olaf Rieck and Dieter Ruelker (Germans)",27.9194539,86.9819868
"52","CHOY","Cho Oyu","Nepal & China","",8188,26864,"Khumbu","Khumbu-Rolwaling-Makalu","","Climbed",1,0,0,0,1954,"Autumn","Oct 19","Austria, Nepal","Herbert Tichy, Sepp Jeochler, Pasang Dawa Lama","",28.0967613,86.659654
"53","CHRE","Churen Himal East","Nepal only","",7371,24183,"Dhaulagiri","Dhaulagiri-Mukut","One permit for Churen Himal's three summits","Climbed",1,0,0,0,1970,"Spring","Apr 29","S Korea, Nepal","Kim Ho-Sup, Rinsing Ongyal Sherpa","",NA,NA
"54","CHRI","Chhukung Ri","Nepal only","",5550,18209,"Khumbu","Khumbu-Rolwaling-Makalu","Opened in 1997; converted to trekking peak in 2002","Climbed",0,0,1,2002,1965,"Spring","May","Netherlands","Johannes Adolf Noordijk","",NA,NA
"55","CHRW","Churen Himal West","Nepal only","",7371,24183,"Dhaulagiri","Dhaulagiri-Mukut","One permit for Churen Himal's three summits","Climbed",1,0,0,0,1970,"Autumn","Oct 28","Japan, Nepal","Kozo Hasegawa, Ang Norbu Sherpa","",NA,NA
"56","CHUB","Chhuboche","Nepal only","",5606,18392,"Damodar","Annapurna-Damodar-Peri","","Climbed",1,0,0,0,2013,"Autumn","Nov 16","UK","Brian Jackson, Hugh Wrightson, Pasang Sherpa, Tendi Wangya","",NA,NA
"57","CHUG","Chukyima Go","Nepal only","Chugimago",6258,20531,"Rolwaling","Khumbu-Rolwaling-Makalu","Opened in 2014","Climbed",1,0,0,0,2014,"Autumn","Nov 12","Slovenia","Domen Kastelic, Sam Hennessey","Originally thought that 1952 Scottish expedition climbed this peak, but likely Peak 5794m instead",NA,NA
"58","CHUK","Chhukung Tse","Nepal only","Chhukung Chuli",5833,19137,"Khumbu","Khumbu-Rolwaling-Makalu","","Climbed",0,0,1,0,1953,"Spring","Apr 03","UK, Nepal","John Hunt, Tenzing Norgay Sherpa","",NA,NA
"59","CHUL","Chulu Central","Nepal only","Chulu East",6584,21601,"Damodar","Annapurna-Damodar-Peri","","Climbed",0,0,1,1978,1955,"Spring","Jul 23","W Germany","Heinz Steinmetz, Harald Biller, Fritz Lobbichler, Juergen Wellenkamp","",-12.8241485,33.3069523
"60","CHUM","Chumbu","Nepal only","",6859,22503,"Khumbu","Khumbu-Rolwaling-Makalu","Opened in 2014","Unclimbed",1,0,0,0,0,"All","","","Unclimbed","",28.0136395,86.7878294
"61","CHUR","Churen Himal Central","Nepal only","",7385,24229,"Dhaulagiri","Dhaulagiri-Mukut","One permit for Churen Himal's three summits","Climbed",1,0,0,0,1970,"Autumn","Oct 24","Japan","Masayoshi Fukui, Kozo Hasegawa","",NA,NA
"62","CHUW","Chulu West","Nepal only","",6419,21060,"Damodar","Annapurna-Damodar-Peri","","Climbed",0,0,1,1978,1952,"Autumn","Oct 23","Japan","Kinji Imanishi, Kazuhiko Hayashi, Sasuke Nakao, Jiro Taguchi, Masataka Takagi, Sakuta Takebushi","",28.7454053,84.0228323
"63","CHWT","Changwathang","Nepal only","",6130,20112,"Nalakankar/Chandi/Changla","Far West-Kanjiroba","Opened in 2002","Climbed",1,0,0,0,2000,"Summer","Jun 28","Japan, Nepal","Tamotsu Ohnishi, Koji Mizutani, Nobuo Akayama, Takehiko Yanagihara, Chuldim Nuru Sherpa, Dawa Sherpa","",NA,NA
"64","CPHU","Chhochenphu Himal","Nepal only","",6260,20538,"Janak/Ohmi Kangri","Kangchenjunga-Janak","Opened in 2014","Unclimbed",1,0,0,0,0,"All","","","Unclimbed","",NA,NA
"65","CTSE","Changtse","China only","Everest North Peak",7583,24879,"Khumbu","Khumbu-Rolwaling-Makalu","Peak entirely within China","Climbed",0,1,0,0,1982,"Spring","Oct 14","W Germany","Udo Zehetleitner","",28.024329,86.9151856
"66","DANG","Danga","Nepal only","",6220,20407,"Janak/Ohmi Kangri","Kangchenjunga-Janak","Opened in 2002","Climbed",1,0,0,0,2002,"Autumn","Oct 20","Denmark","Allan Christensen, Bo Belvedere Christensen, Jan Mathorne","",13.223166,14.932821
"67","DANS","Danphe Shail","Nepal & China","Danfe Shail",6103,20023,"Kanti/Palchung","Far West-Kanjiroba","Opened in 2002","Climbed",1,0,0,0,2017,"Autumn","Oct 05","France, Nepal","Sonia Baillif, Etienne De Fleurian, Laurence De Fleurian, Paulo Grobel, Jean Males, Etienne Principaud, Bernard Vallet, Dipen Bhote, Dhan Magar, Anil Rai","",29.6720812,83.0083371
"68","DGAR","Dhaulagari","Nepal only","Dhaulasiri",6638,21778,"Api/Byas Risi/Guras","Far West-Kanjiroba","Opened in 2002","Unclimbed",1,0,0,0,0,"All","","","Unclimbed","",28.7471549,83.4995489
"69","DHA1","Dhaulagiri I","Nepal only","",8167,26795,"Dhaulagiri","Dhaulagiri-Mukut","","Climbed",1,0,0,0,1960,"Spring","May 13","Switzerland, Austria, W Germany, Nepal","Peter Diener, Kurt Diemberger, Albin Schelbert, Ernst Forrer, Nima Dorje Sherpa, Nawang Dorje Sherpa","",30.3467133,78.1783676
"70","DHA2","Dhaulagiri II","Nepal only","",7751,25430,"Dhaulagiri","Dhaulagiri-Mukut","","Climbed",1,0,0,0,1971,"Spring","May 18","Austria, USA, Nepal","Adolf Huber, Ronald Fear, Adi Weissensteiner, Jangbu Sherpa","",28.7631589,83.3873786
"71","DHA3","Dhaulagiri III","Nepal only","Nalu, Naula",7715,25312,"Dhaulagiri","Dhaulagiri-Mukut","","Climbed",1,0,0,0,1973,"Autumn","Oct 20","W Germany","Klaus Schreckenbach, Gerhard Haberl, Hans Saler","",28.7540263,83.3771445
"72","DHA4","Dhaulagiri IV","Nepal only","",7661,25135,"Dhaulagiri","Dhaulagiri-Mukut","","Climbed",1,0,0,0,1975,"Spring","May 09","Japan","Shiro Kawazu, Etsuro Yasuda","1st ascent claimed (summmiters died in fall on descent)",28.7357489,83.314379
"73","DHA5","Dhaulagiri V","Nepal only","",7618,24993,"Dhaulagiri","Dhaulagiri-Mukut","","Climbed",1,0,0,0,1975,"Spring","May 01","Japan, Nepal","Masaaki Morioka, Pemba Tsering Sherpa","",28.734057,83.3605794
"74","DHA6","Dhaulagiri VI","Nepal only","",7268,23845,"Dhaulagiri","Dhaulagiri-Mukut","","Climbed",1,0,0,0,1970,"Spring","Apr 17","Japan","Shiro Kawazu, Shoichi Kimura, Hisazumi Nakamura, Seijiro Yamamura","",28.7083897,83.2731956
"75","DHAM","Dhampus","Nepal only","Thapa Peak, Marpha Peak",6012,19724,"Mukut/Mustang","Dhaulagiri-Mukut","","Climbed",1,0,0,0,1960,"Spring","Apr","Austria","Kurt Diemberger","Dhampus has two summits (the western summit is called Thapa)",28.300303,83.858681
"76","DHEC","Dhechyan Khang","Nepal & China","",6019,19747,"Damodar","Annapurna-Damodar-Peri","Opened in 2014","Climbed",1,0,0,0,2018,"Spring","May 05","Austria, Germany, Nepal","Wolfgang Drexler, Martin Thallmair, Lawang Tamang, Yokachi Tamang","",NA,NA
"77","DING","Dingjung North","Nepal & China","Kangkuru, Rima Mancho",6249,20502,"Rolwaling","Khumbu-Rolwaling-Makalu","Opened in 2014","Climbed",1,0,0,0,1955,"Spring","May 16","UK","Peter Boultbee, Dennis Davis","This team called the peak Kangkuru",NA,NA
"78","DINS","Dingjung Ri","Nepal & China","Dingjung Ri South",6196,20328,"Rolwaling","Khumbu-Rolwaling-Makalu","Opened in 2002","Climbed",1,0,0,0,2008,"Spring","Mar 15","Japan","Kenro Nakajima, Hiroki Yamamoto","1st known ascent (may be others earlier)",27.9480862,86.7227096
"79","DOGA","Dogari","Nepal only","",6536,21444,"Dhaulagiri","Dhaulagiri-Mukut","Opened in 2003","Unclimbed",1,0,0,0,0,"All","","","Unclimbed","",44.8469173,24.481427
"80","DOLM","Dolma Khang","Nepal & China","Tseringma",6332,20774,"Rolwaling","Khumbu-Rolwaling-Makalu","Opened in 2014","Climbed",1,0,0,0,1980,"Spring","Apr 11","Australia, Nepal","Graham Brammer, Paul Richards, Shambu Tamang","",NA,NA
"81","DOMK","Dome Kang","Nepal & India","",7264,23832,"Jongsang","Kangchenjunga-Janak","Opened in 2002","Climbed",1,0,0,0,2009,"Spring","Apr 28","Spain, Nepal","Emilio Lagunilla, Carlos Soria, Chhang Dawa Sherpa, Karma Gyalzen Sherpa, Halung Dorchi Sherpa","",46.44949325,4.12371954596929
"82","DOMO","Domo","Nepal & India","Jongsang SE Peak",7447,24432,"Jongsang","Kangchenjunga-Janak","","Climbed",0,1,0,0,1930,"Spring","Jun 08","Germany, Nepal","Guenter Dyhrenfurth, Lewa Sherpa","",43.401661,13.0608279
"83","DORJ","Dorje Lhakpa","Nepal only","",6966,22854,"Jugal","Langtang-Jugal","","Climbed",1,0,0,0,1981,"Autumn","Oct 18","Japan, Nepal","Kunio Kataoka, Makoto Anbe, Kazunari Murakami, Eiichi Shingyoji, Pemba Tsering Sherpa","Rumored that two British climbers summited via the W Ridge in 1979 (Dick Isherwood and Geoff Cohen)",28.175405,85.7786481
"84","DRAG","Dragmorpa Ri","Nepal & China","Thakmarpo Ri, Panaya Tippa",6185,20292,"Langtang","Langtang-Jugal","","Climbed",1,0,0,0,2013,"Spring","May 30","Russia","Roman Gretzky","Did Gretzky climb Dagmorpa Ri or Paniyo Tippa in Khumbu?",28.325673,85.6614726
"85","DRAN","Drangnag Ri","Nepal only","Thaknak Ri",6757,22169,"Rolwaling","Khumbu-Rolwaling-Makalu","","Climbed",1,0,0,0,1995,"Spring","Apr 30","Norway, UK, Nepal","Chris Bonington, Ralph Hoibakk, Bjorn Myrer-Lund, Lhakpa Gyalu Sherpa, Pema Dorje Sherpa","",NA,NA
"86","DROM","Drohmo","Nepal only","Domo, Longridge Peak",6881,22575,"Jongsang","Kangchenjunga-Janak","Opened in 1997","Unclimbed",1,0,0,0,0,"All","","","Main summit unclimbed","",27.8243769,88.1008155
"87","DUDH","Dudh Kundali","Nepal only","Dui Tal Chuli, Two Lakes Peak",6045,19833,"Kanjiroba","Far West-Kanjiroba","","Climbed",1,0,0,0,1953,"Autumn","Nov","Austria, Nepal, India","Herbert Tichy, Ajiba Sherpa, Gyalzen Sherpa, Pasang Dawa Lama, Pemba Sherpa","Climbed again in 1999 by French group",NA,NA
"88","DWIJ","Dwijen Himal","Nepal & China","",6169,20240,"Ganesh/Shringi","Manaslu-Ganesh","Opened in 2014","Unclimbed",1,0,0,0,0,"All","","","Unclimbed","",NA,NA
"89","DZA2","Dzanye II","Nepal & China","",6318,20728,"Janak/Ohmi Kangri","Kangchenjunga-Janak","Opened in 2014","Climbed",1,0,0,0,2015,"Autumn","Oct 04","Japan","Takanori Mashimo, Kotaro Myatsu, Kenta Kimura, Shinnosuke Ashikari, Shun Katsurai, Takehiro Nozawa","",NA,NA
"90","DZAN","Dzanye","Nepal & China","Dzanaye",6581,21591,"Janak/Ohmi Kangri","Kangchenjunga-Janak","","Climbed",1,0,0,0,1949,"Spring","Jun 30","Switzerland","Alfred Sutter, Rene Dittert, Annelies Lohner, Jacob Pargaetzi-Almer, Edouard Wyss-Dunant","",NA,NA
"91","DZAS","Dzasampatse","Nepal only","",6295,20653,"Khumbu","Khumbu-Rolwaling-Makalu","","Climbed",0,1,0,0,2004,"Autumn","Oct 18","Slovenia","Urban Azman, Tadej Golob","",NA,NA
"92","EKRA","Ek Rate Danda","Nepal only","",6213,20384,"Khumbu","Khumbu-Rolwaling-Makalu","Opened in 2002","Unclimbed",1,0,0,0,0,"All","","","Unclimbed","",NA,NA
"93","EVER","Everest","Nepal & China","Sagarmatha, Chomolungma, Qomolungma",8850,29035,"Khumbu","Khumbu-Rolwaling-Makalu","","Climbed",1,0,0,0,1953,"Spring","May 29","New Zealand, India","Edmund Hillary, Tenzing Norgay Sherpa","",27.9882393,86.925017
"94","FANG","Fang","Nepal only","Varaha Shikhar, Varaha Chuli, Finger",7647,25089,"Annapurna","Annapurna-Damodar-Peri","","Climbed",1,0,0,0,1980,"Spring","May 17","Austria, Nepal","Sepp Mayerl, Hermann Neumair, Ang Chepal Sherpa","",32.0426141,110.7210616
"95","FIRN","Firnkopf","Nepal only","Firnkopf East",6730,22080,"Saipal","Far West-Kanjiroba","","Unclimbed",1,0,0,0,0,"All","","","Unclimbed","",29.901419,81.4560136
"96","FIRW","Firnkopf West","Nepal only","",6745,22129,"Saipal","Far West-Kanjiroba","","Climbed",1,0,0,0,1987,"Autumn","Oct 25","Austria, W Germany, Nepal","Franz Kroell, Fritz Mross, Ang Chopal Sherpa","Austrian Saipal expedition of 1954 may have reached Firnkopf West",NA,NA
"97","GAMA","Gama Peak","Nepal only","",7187,23579,"Dhaulagiri","Dhaulagiri-Mukut","","Climbed",0,1,0,0,1970,"Autumn","Oct 25","Japan","Goro Nabeyama, Katsuhiro Nakashima","",33.3052114,126.246914
"98","GAN1","Ganesh I","Nepal & China","Yangra Kangri",7422,24350,"Ganesh/Shringi","Manaslu-Ganesh","","Climbed",1,0,0,0,1955,"Autumn","Oct 24","Switzerland, France","Raymond Lambert, Eric Gauchat, Claude Kogan","",28.3917215,85.1270407
"99","GAN2","Ganesh II","Nepal only","",7118,23353,"Ganesh/Shringi","Manaslu-Ganesh","","Climbed",1,0,0,0,1981,"Autumn","Oct 16","W Germany, Nepal","Hermann Warth, Ang Chepal Sherpa, Nga Temba Sherpa, Nima Tenzing Sherpa","Note: This mountain previously known as Ganesh III till re-surveyed in early 1990's.",28.3789024,85.0551861
"100","FUTI","Futi Himal","Nepal only","",6425,21079,"Damodar","Annapurna-Damodar-Peri","","Climbed",0,1,1,0,2014,"Spring","May 16","Portugal","Pedro Guedes Viera, Sandra Lima Dos Reis, Oldemiro Lima Fortunato, Frederico Mohilla Salomao","",NA,NA
"101","GAN3","Ganesh III","Nepal & China","Salasungo, Kang Lombo, Lopsang Karbo",7043,23107,"Ganesh/Shringi","Manaslu-Ganesh","","Climbed",1,0,0,0,1979,"Autumn","Oct 19","Japan, Nepal","Hideo Ogura, Pemba Tshering Sherpa, Dawa Norbu Sherpa","Note: This mountain previously known as Ganesh II till re-surveyed in early 1990's.",28.3363962,85.120491
"102","GAN4","Ganesh IV","Nepal only","Pabil",7104,23307,"Ganesh/Shringi","Manaslu-Ganesh","","Climbed",1,0,0,0,1978,"Autumn","Oct 20","Japan, Nepal","T Tomita, H Yoshio, K Aoyagi, M Hashimoto, Y Hashimoto, Y Okuma, T Shimoji, T Suzuki, I Yasuda, Yogendra Thapa, Kamal Bhandari, Mingma Tenzing Sherpa, Sonan Wolang Sherpa","",28.3452083,85.0795779
"103","GAN5","Ganesh V","Nepal & China","",6770,22211,"Ganesh/Shringi","Manaslu-Ganesh","","Climbed",1,0,0,0,1980,"Spring","Apr 21","Japan, Nepal","Tatsumi Sasaki, Akihiko Komori, Lhakpa Dorje Sherpa, Nima Tenzing Sherpa, Nima Nuru Sherpa","",28.3312446,85.1628264
"104","GAN6","Ganesh VI","Nepal only","",6908,22664,"Ganesh/Shringi","Manaslu-Ganesh","Opened in 2002","Climbed",1,0,0,0,2000,"Spring","May 23","Japan","Osamu Tanabe, Yasuhiro Hanatani","Possibly climbed in 1981 by Japanese Ganesh II team led by Hiroyashu Shirakabe",28.3697277,85.0614738
"105","GAN7","Ganesh VII","China only","",6350,20833,"Ganesh/Shringi","Manaslu-Ganesh","","Unclimbed",0,1,0,0,0,"All","","","Unclimbed?","",28.3916458,85.1867974
"106","GANC","Ganchenpo","Nepal only","Fluted Peak, Ganchempo",6378,20925,"Jugal","Langtang-Jugal","","Climbed",1,0,0,0,1971,"Autumn","OctNov","USA","Terry Bech, Cheri Bech","",28.1693908,85.6785419
"107","GAND","Gandharva Chuli","Nepal only","Gandharbha, Gabelhorn Peak",6248,20499,"Annapurna","Annapurna-Damodar-Peri","","Climbed",1,0,0,0,2013,"Spring","May 06","Romania","Cosmin Andron, Christina Pogacean","",NA,NA
"108","GANG","Gangapurna","Nepal only","",7455,24459,"Annapurna","Annapurna-Damodar-Peri","","Climbed",1,0,0,0,1965,"Spring","May 06","W Germany, Nepal","Gunter Hauser, Ludwig Greissl, Hermann Kollensperger, Erich Reismueller, Ang Temba Sherpa, Phu Dorje Sherpa","",28.605655,83.9635144
"109","GANW","Gangapurna West","Nepal only","Lachenal Peak, Asapurna",7140,23425,"Annapurna","Annapurna-Damodar-Peri","Opened in 2014","Unclimbed",1,0,0,0,0,"All","","","Unclimbed?","",NA,NA
"110","GAUG","Gaugiri","Nepal & China","",6110,20046,"Damodar","Annapurna-Damodar-Peri","Opened in 2002","Climbed",1,0,0,0,2002,"Spring","May 28","USA","Peter Ackroyd, Jim Frush","",29.0458971,84.1879231
"111","GAUR","Gaurishankar","Nepal & China","Jomo Tseringma",7135,23409,"Rolwaling","Khumbu-Rolwaling-Makalu","","Climbed",1,0,0,0,1979,"Spring","May 08","US, Nepal","John Roskelley, Dorje Sherpa","",27.81040175,86.3220589633968
"112","GAUS","Gaurishankar South","Nepal only","Gauri",7010,22999,"Rolwaling","Khumbu-Rolwaling-Makalu","Opened in 2014","Climbed",1,0,0,0,1979,"Autumn","Nov 09","UK","Peter Boardman, Pemba Lama, Timothy Leach, Guy Neithardt","",NA,NA
"113","GHAN","Ghhanyala Hies","Nepal & China","",6744,22126,"Janak/Ohmi Kangri","Kangchenjunga-Janak","Opened in 2002","Unclimbed",1,0,0,0,0,"All","","","Unclimbed","",NA,NA
"114","GHEN","Ghenge Liru","Nepal only","Ghenye Lirung, Langtang II",6596,21640,"Langtang","Langtang-Jugal","Opened in 2002","Climbed",1,0,0,0,1963,"Spring","May 28","UK, Nepal","Peter Taylor, Pasang Sherpa, Pasang Phutar Sherpa (I)","",28.2477839,85.4711879
"115","GHUN","Ghustang North","Nepal only","",6529,21421,"Dhaulagiri","Dhaulagiri-Mukut","Opened in 2003","Climbed",1,0,0,0,1962,"Autumn","Oct 22","UK, Nepal","J.O.M. Roberts, Ang Pema Sherpa, Nawang Dorje Sherpa","",NA,NA
"116","GHUS","Ghustang South","Nepal only","Gurja West, Paschim Himal",6465,21211,"Dhaulagiri","Dhaulagiri-Mukut","Opened in 2003","Climbed",1,0,0,0,2019,"Autumn","Oct 23","France, Canada, Switzerland, Nepal","Corinne Amouillin-Gautier, Herve Barlier, Sophie Bellier, Dimitri Lomer, Albert Namiache, Charles Rossignol, Francois Schulz, Dipen Nuppa Bhote, Rajan Lama Bhote, Chettar Sherpa","",NA,NA
"117","GHYM","Ghyuthumba Main","Nepal only","Gutumpa, Pasang Peak",5806,19049,"Kanjiroba","Far West-Kanjiroba","","Climbed",0,1,0,0,1953,"Autumn","Nov","Austria, Nepal, India","Herbert Tichy, Ajiba Sherpa, Gyalzen Sherpa, Pasang Dawa Lama, Pemba Sherpa","",NA,NA
"118","GHYN","Ghyun Himal I","Nepal & China","",6110,20046,"Mukut/Mustang","Dhaulagiri-Mukut","Opened in 2014","Unclimbed",1,0,0,0,0,"All","","","Unclimbed","",NA,NA
"119","GIME","Gimmigela Chuli East","Nepal & India","Twins",7007,22989,"Kangchenjunga/Simhalila","Kangchenjunga-Janak","Requires permit for Gimmigela Chuli","Climbed",0,1,0,0,1993,"Autumn","Oct 09","Japan, Nepal","Hideo Koike, Masanori Sato, Taro Tanigawa, Chuldin Sherpa, Pasang Nima Sherpa, Phurba Sherpa","",NA,NA
"120","GIMM","Gimmigela Chuli","Nepal & India","Twins",7350,24114,"Kangchenjunga/Simhalila","Kangchenjunga-Janak","","Climbed",1,0,0,0,1994,"Autumn","Oct 29","Japan, Nepal","Shigeru Yokokuwa, Dawa Wangchuk Sherpa, Pasang Gyalzen Sherpa, Pasang Tenzing Sherpa","",NA,NA
"121","GLAC","Glacier Dome","Nepal only","Tarke Kang, Tarke Khang",7168,23517,"Annapurna","Annapurna-Damodar-Peri","","Climbed",1,0,0,0,1964,"Spring","Oct 16","Japan, Nepal","Mitsuhiro Nishimura, Dorje Sherpa","",50.437744,-116.6197945
"122","GOJN","Gojung","Nepal & China","Mugu Chuli",6310,20702,"Kanti/Palchung","Far West-Kanjiroba","","Climbed",0,1,0,0,2011,"Autumn","Oct 19","UK","Mick Fowler, Dave Turnbull","",NA,NA
"123","GOLD","Goldum Peak","Nepal & China","Pangri Goldumba",6632,21759,"Jugal","Langtang-Jugal","Opened in 2014","Unclimbed",1,0,0,0,0,"All","","","Unclimbed","",28.3255179,85.7318419
"124","GORH","Gorakh Himal","Nepal & China","",6198,20335,"Nalakankar/Chandi/Changla","Far West-Kanjiroba","Opened in 2002","Unclimbed",1,0,0,0,0,"All","","","Unclimbed","",30.065149,82.231329
"125","GORK","Gorakh Khang","Nepal & China","",6254,20518,"Nalakankar/Chandi/Changla","Far West-Kanjiroba","Opened in 2014","Unclimbed",1,0,0,0,0,"All","","","Unclimbed","",NA,NA
"126","GURA","Guras","Nepal & China","",6744,22126,"Api/Byas Risi/Guras","Far West-Kanjiroba","Opened in 2014","Unclimbed",1,0,0,0,0,"All","","","Unclimbed","",40.6938241,20.6294512
"127","GURJ","Gurja Himal","Nepal only","",7193,23599,"Dhaulagiri","Dhaulagiri-Mukut","","Climbed",1,0,0,0,1969,"Autumn","Nov 01","Japan, Nepal","Tomokuni Saeki, Lhakpa Tenzing Sherpa","",28.6741019,83.275664
"128","GURK","Gurkarpo Ri","Nepal & China","",6889,22602,"Jugal","Langtang-Jugal","","Climbed",1,0,0,0,2007,"Autumn","Nov 01","France","Paul Grobel, Pierre-Olivier Dupuy, Marc Kia, Jean Francois Males","",28.2117364,85.7736263
"129","GYAC","Gyachung Kang","Nepal & China","",7861,25791,"Khumbu","Khumbu-Rolwaling-Makalu","","Climbed",1,0,0,0,1964,"Spring","Apr 10","Japan, Nepal","Yukihiko Kato, Kiyoto Sakaizawa, Pasang Phutar Sherpa (I)","",28.0980314,86.7448435
"130","GYAJ","Gyajikang","Nepal only","Gyaji Khang",7074,23209,"Peri","Annapurna-Damodar-Peri","","Climbed",1,0,0,0,1994,"Autumn","Oct 07","Japan, Nepal","Toshisada Hasegawa, Yousuke Kokubo, Osamu Tanabe, Ram Kaji Sivakoti, Pasang Tshering Sherpa, Dambar Bahadur Gurung","",NA,NA
"131","GYLA","Gyala","Nepal & China","",6363,20876,"Manaslu/Mansiri","Manaslu-Ganesh","Opened in 2014","Unclimbed",1,0,0,0,0,"All","","","Unclimbed","",27.37904615,89.933813990078
"132","GYLZ","Gyalzen Peak","Nepal & China","Gyaltsen Peak",6151,20180,"Jugal","Langtang-Jugal","","Climbed",1,0,0,0,2019,"Spring","Apr 09","Nepal","Maya Gurung, Min Bahadur Tamang, Sharmila Thapa, Tul Singh Gurung, Nar Bahadur Astani, Ash Bahadur Gurung, Samir Gurung","Climbed by Japanese in 1961 (then called Gumasi Peak)?",NA,NA
"133","HCHI","Hungchhi","Nepal & China","Hunchhi, Chakung, Gyubanare Kang, Gyuba Tshomotse",7029,23061,"Khumbu","Khumbu-Rolwaling-Makalu","Opened in 2001","Climbed",1,0,0,0,2003,"Spring","Apr 19","Japan, Nepal","Katsuo Fukuhara, Tadashi Morita, Kanji Shimizu, Durga Rai, Hit Bahadur Tamang, Ram Kaji Tamang, Tul Bahadur Tamang","",NA,NA
"134","HERZ","Herzog Peak","Nepal only","Khangsar Khang West",7555,24787,"Annapurna","Annapurna-Damodar-Peri","Opened in 2014","Climbed",1,0,0,0,0,"All","","","Climbed?","Likely climbed on traverses to ANNE",NA,NA
"135","HIME","Himalchuli East","Nepal only","Himalchuli Main",7893,25896,"Manaslu/Mansiri","Manaslu-Ganesh","","Climbed",1,0,0,0,1960,"Spring","May 24","Japan","Masahiro Harada, Hisashi Tanabe","",NA,NA
"136","HIMJ","Himjung","Nepal only","Nemjung Goth",7092,23268,"Peri","Annapurna-Damodar-Peri","Opened in 2002","Climbed",1,0,0,20,2012,"Autumn","Oct 12","S Korea","Kim Chang-Ho, An Chi-Young","",NA,NA
"137","HIML","Himlung Himal","Nepal only","",7126,23379,"Peri","Annapurna-Damodar-Peri","","Climbed",1,0,0,0,1992,"Spring","Oct 03","Japan, Nepal","Osamu Hanai, Akio Koizumi, Nima Sherpa","Expeditions to Himlung prior to 1992 were probably climbing Nemjung",NA,NA
"138","HIMN","Himalchuli North","Nepal only","",7331,24052,"Manaslu/Mansiri","Manaslu-Ganesh","","Climbed",1,0,0,0,1985,"Autumn","Oct 27","S Korea, Nepal","Lee Jae-Hong, Ang Pasang Sherpa, Jangbu Sherpa, Lhakpa Norbu Sherpa, Pasang Dawa Sherpa","",NA,NA
"139","HIMW","Himalchuli West","Nepal only","",7540,24738,"Manaslu/Mansiri","Manaslu-Ganesh","","Climbed",1,0,0,0,1978,"Spring","May 07","Japan","Yoshio Ogata, Kazuhiro Sugeno","",NA,NA
"140","HIUP","Hiunchuli","Nepal only","Patal Hiunchuli",6434,21109,"Annapurna","Annapurna-Damodar-Peri","","Climbed",0,0,1,1978,1971,"Autumn","Oct 10","USA","Craig Anderson, Peter Cross, Jim Richards, John Skow, Lane Smith","",28.51,83.85
"141","HMLE","Himlung East","Nepal & China","",6932,22743,"Peri","Annapurna-Damodar-Peri","Opened in 2014","Climbed",1,0,0,0,2017,"Spring","May 08","France, Nepal","Paulo Grobel, Isabelle Guillaume, Rajan Lama Bhote, Jangbu Sherpa","",NA,NA
"142","HNKU","Hongku Chuli","Nepal only","Hunku Chuli, Pyramid Peak",6833,22418,"Khumbu","Khumbu-Rolwaling-Makalu","Opened in 2013?","Unclimbed",1,0,0,0,0,"All","","","Unclimbed","",NA,NA
"143","HONG","Hongde","Nepal only","Hangde, Hongde Himal",6556,21509,"Mukut/Mustang","Dhaulagiri-Mukut","","Climbed",1,0,0,0,1962,"Spring","May 08","Japan, Nepal","Shijiro Ishizaka, Zenkichi Hirayama, Takashi Miyahara, Ang Dawa Sherpa, Ang Temba Sherpa","",28.843187,83.4967752
"144","HONK","Hongku","Nepal only","Hongku Chuli Nup, Honku, Sura Peak",6764,22192,"Khumbu","Khumbu-Rolwaling-Makalu","Opened in 2003","Climbed",1,0,0,0,2015,"Autumn","Oct 09","France","Alberto Inurrategi Iriarte, Juan Vallejo Llanos, Miguel Zabalza Azkona","Likely first climbed in the 1980s",NA,NA
"145","HUGO","Hulang Go","Nepal & India","",6687,21939,"Peri","Annapurna-Damodar-Peri","Opened in 2014","Unclimbed",1,0,0,0,0,"All","","","Unclimbed","",NA,NA
"146","HUNK","Hunku","Nepal only","",6119,20075,"Khumbu","Khumbu-Rolwaling-Makalu","Opened in 2002, delisted in 2013?","Climbed",0,1,0,0,2012,"Autumn","Nov 11","UK","Nick Bullock, Andy Houseman","",27.5991207,86.9088123
"147","IMJA","Imjatse","Nepal only","Island Peak",6165,20226,"Khumbu","Khumbu-Rolwaling-Makalu","","Climbed",0,0,1,1978,1956,"Spring","","Switzerland, Nepal","Hansrudolf Von Gunten, 2 unknown Sherpas","1st ascent of SW Summit by UK (Hunt) in 1953. Imjatse may have been climbed in the 1951 or 1952 by members of Shipton's teams",NA,NA
"148","JABR","Jabou Ri","Nepal only","",6166,20230,"Rolwaling","Khumbu-Rolwaling-Makalu","Opened in 2014","Climbed",1,0,0,0,2015,"Autumn","Sep 15","USA","Ryan Waters, Eric Larsen","",NA,NA
"149","JAGD","Jagdula","Nepal only","",5761,18901,"Kanjiroba","Far West-Kanjiroba","","Climbed",1,0,0,0,2013,"Spring","Apr 30","France","Francois Damilano","",NA,NA
"150","JANE","Jannu East","Nepal only","Khumbhakarna East",7460,24475,"Kangchenjunga/Simhalila","Kangchenjunga-Janak","Requires Jannu permit","Unclimbed",1,0,0,0,0,"All","","","","",NA,NA
"151","JANK","Janak Chuli","Nepal & China","Janak, Outlier",7041,23100,"Janak/Ohmi Kangri","Kangchenjunga-Janak","Opened in 2002","Climbed",1,0,0,0,2006,"Spring","May 06","Slovenia","Andrej Stremfelj, Rok Zalokar","",NA,NA
"152","JANU","Jannu","Nepal only","Khumbhakarna",7711,25299,"Kangchenjunga/Simhalila","Kangchenjunga-Janak","","Climbed",1,0,0,0,1962,"Spring","Apr 27","France, Nepal","Rene Desmaison, Paul Keller, Robert Paragot, Gyalzen Mitchung Sherpa","",31.0911756,77.3378327
"153","JARK","Jarkya","Nepal & China","",6473,21237,"Manaslu/Mansiri","Manaslu-Ganesh","Opened in 2014","Unclimbed",1,0,0,0,0,"All","","","Unclimbed","",NA,NA
"154","JASG","Jasemba Goth","Nepal only","Dzasampa Kang",6730,22080,"Khumbu","Khumbu-Rolwaling-Makalu","Opened in 2014","Climbed",1,0,0,0,1964,"Spring","Apr 08","W Germany","Georg Huber, Fritz Stammberger","",NA,NA
"155","JETH","Jethi Bahurani","Nepal only","Jettiborani, Jutibofurani",6850,22474,"Api/Byas Risi/Guras","Far West-Kanjiroba","","Climbed",1,0,0,0,1978,"Spring","Apr 27","Japan","Kazuo Mitsui, Nobuhito Morota, Hideki Yoshida","",29.8806741,81.0393354
"156","JING","Jinjang","Nepal only","Genjang, Gajang, Jijang",6111,20049,"Damodar","Annapurna-Damodar-Peri","Opened in 2002","Climbed",1,0,0,0,0,"All","","","Climbed by Japanese in April 1983?","",3.2113057,101.6583226
"157","JOBO","Jobo Rinjang","Nepal only","Jobo Ribjang",6778,22238,"Rolwaling","Khumbu-Rolwaling-Makalu","Opened in 2002","Climbed",1,0,0,0,2009,"Spring","Apr 22","USA","Joe Puryear, David Gottlieb","",28.0434251,86.5664238
"158","JOMS","Jomsom Himal","Nepal only","Jomsang Himal",6335,20784,"Damodar","Annapurna-Damodar-Peri","Opened in 2002","Climbed",1,0,0,0,2003,"Autumn","Nov 04","France, Nepal","Hugues De Varax, Yves Exbrayat, Frederique Gaume, Paulo Grobel, Mingma Temba Sherpa","",NA,NA
"159","JONG","Jongsang","Nepal, China & India","Jonsong, Jhinsang",7462,24482,"Jongsang","Kangchenjunga-Janak","","Climbed",1,0,0,0,1930,"Spring","Jun 03","Germany, Austria","Hermann Hoerlin, Erwin Schneider","",27.8665878,88.1669036
"160","JUNC","Junction Peak","Nepal only","",7133,23402,"Dhaulagiri","Dhaulagiri-Mukut","","Unclimbed",0,1,0,0,0,"All","","","Unclimbed","",-33.9738344,18.4158782
"161","JYAC","Jyachhung","Nepal & China","",6338,20794,"Api/Byas Risi/Guras","Far West-Kanjiroba","Opened in 2014","Unclimbed",1,0,0,0,0,"All","","","Unclimbed","",NA,NA
"162","KABD","Kabru Dome","India only","",6600,21654,"Kangchenjunga/Simhalila","Kangchenjunga-Janak","","Climbed",0,1,0,0,1982,"Autumn","Sep 24","India","Mahabir Thakur, Tshering Lobsang, K. N. Singh, Gautam Dutta, P. Bhotia, Umeshari Devi","1st ascent claimed by India (Biswas) but not recognized",NA,NA
"163","KABN","Kabru North","Nepal & India","",7338,24075,"Kangchenjunga/Simhalila","Kangchenjunga-Janak","","Climbed",0,1,0,0,1935,"Autumn","Nov 18","UK","C. R. (Reggie) Cooke","Possible ascent by UK & Swiss (W. W. Graham, Emil Boss, Ulrich Kauffman) in 1883 (AJ, 219-228 (2009), Willy Blaser & Glyn Hughes",NA,NA
"164","KABR","Kabru Main","Nepal & India","Kabru Central",7412,24318,"Kangchenjunga/Simhalila","Kangchenjunga-Janak","Opened in 2014","Climbed",1,0,0,0,1994,"Spring","May 12","India","Dan Singh, 2 unknown members","",NA,NA
"165","KABS","Kabru South","Nepal & India","",7318,24009,"Kangchenjunga/Simhalila","Kangchenjunga-Janak","Opened in 2003","Climbed",1,0,0,0,1994,"Spring","May 12","India","S. P. Malik, N. Arshad, 11 members","",NA,NA
"166","KAG1","Kagmara I","Nepal only","",5978,19613,"Kanjiroba","Far West-Kanjiroba","","Climbed",1,0,0,0,1962,"Spring","May 23","UK, Nepal","Dorothea Gravina, Denise Evans, Nancy Smith, Pat Wood, Ang Temba Sherpa, Mingma Tsering Sherpa, Pemba Norbu Sherpa","",24.2547409,89.9114574
"167","KAGA","Kanta Gaton","Nepal only","Kangfu Gaton",5910,19390,"Kanjiroba","Far West-Kanjiroba","Opened in 2002","Climbed",1,0,0,0,2009,"Summer","Aug 16","France, Nepal","Jean-Rene Minelli, Abel Minelli, Eienne Minelli, Sarah Minelli, Pemba Jangbu Sherpa","1st official ascent",NA,NA
"168","KAIP","Kaipuchonam","Nepal & China","",6329,20764,"Kanti/Palchung","Far West-Kanjiroba","Opened in 2014","Unclimbed",1,0,0,0,0,"All","","","Unclimbed","",NA,NA
"169","KAKU","Kang Kuru","Nepal only","",6344,20814,"Mukut/Mustang","Dhaulagiri-Mukut","","Climbed",0,1,0,0,2008,"Spring","Apr 16","USA","Peter Athans, Theodore Hessler","",47.4115613,2.9273937
"170","KALI","Kali Himal","Nepal only","Chota Ri, Baruntse North",6985,22917,"Khumbu","Khumbu-Rolwaling-Makalu","Opened in 2002","Climbed",1,0,0,0,1983,"Spring","Apr 05","Netherlands","Joost Ubblink, Edwin Van Nieuwkerk","",27.8720615,86.9796489
"171","KAN1","Kande Hiunchuli North  I","Nepal only","",6521,21394,"Kanjiroba","Far West-Kanjiroba","","Unclimbed",0,1,0,0,0,"All","","","Unclimbed","",NA,NA
"172","KAN2","Kande Hiunchuli North  II","Nepal only","",6471,21230,"Kanjiroba","Far West-Kanjiroba","","Climbed",0,1,0,0,1980,"Spring","May 03","Switzerland","Daniel Chevallier, Pierre Galland","",NA,NA
"173","KANB","Kangbachen","Nepal only","Kambachen",7902,25925,"Kangchenjunga/Simhalila","Kangchenjunga-Janak","","Climbed",1,0,0,0,1974,"Spring","May 26","Poland","Wojciech Branski, Wieslaw Klaput, Marek Malatynski, Kazimierz Olech, Zbigniew Rubinowski","",NA,NA
"174","KANC","Kangchenjunga Central","Nepal & India","",8473,27799,"Kangchenjunga/Simhalila","Kangchenjunga-Janak","","Climbed",1,0,0,0,1978,"Spring","May 22","Poland","Wojciech Branski, Zygmunt Heinrich, Kazimierz Olech","Illegal ascent",NA,NA
"175","KAND","Kande Hiunchuli","Nepal only","",6627,21742,"Kanjiroba","Far West-Kanjiroba","","Climbed",1,0,0,0,1972,"Autumn","Oct 18","Japan","Toyokazu Hirota, Shigeru Kuwahata","1st ascent claimed (but perhaps climbed 6570m peak)",NA,NA
"176","KANG","Kangchenjunga","Nepal & India","",8586,28169,"Kangchenjunga/Simhalila","Kangchenjunga-Janak","","Climbed",1,0,0,0,1955,"Spring","May 25","UK","George Band, Joe Brown","",27.7011094,88.1483408
"177","KANN","Kangchenjunga North","Nepal & India","",7938,26043,"Kangchenjunga/Simhalila","Kangchenjunga-Janak","Opened in 2014","Unclimbed",1,0,0,0,0,"All","","","Unclimbed?","Possibly traversed on KANG ascents from north",27.7877856,88.1099862
"178","KANS","Kangchenjunga South","Nepal & India","",8476,27808,"Kangchenjunga/Simhalila","Kangchenjunga-Janak","","Climbed",1,0,0,0,1978,"Spring","May 19","Poland","Eugeniusz Chrobak, Wojciech Wroz","",NA,NA
"179","KANT","Kanti Himal","Nepal & China","Ronglai Kangri, Kaqur Kangri, Kubi Grangri",6850,22474,"Kanti/Palchung","Far West-Kanjiroba","Opened in 2002","Climbed",1,0,0,0,2002,"Autumn","Sep 24","Japan, Nepal","Toyoji Wada, Katsumi Nishida, Atsushi Senda, Hyosuke Tsuboi, Yusuke Ueda, Ang Mingm Sherpa, Karchen Dawa Sherpa, Nga Dorje Sherpa","Ascent was from Tibetan side",29.75565275,82.6986979199196
"180","KAPT","Kaptang","Nepal & China","",5965,19570,"Kanti/Palchung","Far West-Kanjiroba","Opened in 2002","Climbed",1,0,0,0,2009,"Autumn","Jun 09","Japan, Nepal","Tamotsu Ohnishi, Toshitsugi Irizawa, Gombu Sherpa","",1.3561716,34.5833391
"181","KARK","Karko","Nepal only","",6015,19734,"Saipal","Far West-Kanjiroba","Opened in 2002","Unclimbed",1,0,0,0,0,"All","","","Unclimbed?","",28.5687025,95.0570261
"182","KARS","Karsang Kang","Nepal only","Kharsang",6225,20423,"Damodar","Annapurna-Damodar-Peri","Opened in 2014","Climbed",1,0,0,0,2008,"Autumn","Oct 11","France","Paulo Grobel, Mary Cler","",NA,NA
"183","KARY","Karyolung","Nepal only","",6530,21424,"Rolwaling","Khumbu-Rolwaling-Makalu","","Climbed",1,0,0,0,1982,"Autumn","Oct 31","Japan, Nepal","Yoshiyuki Inoue, Masatoshi Iwasa, Hiroshi Nishie, Yogendra Thapa, Gita Bdr Joshi, Babu Ram Pun, Gore Tamang, Pemba Tshering Sherpa","",27.7340748,86.6112098
"184","KASI","Kasi Dalpha","Nepal only","",6386,20951,"Kanjiroba","Far West-Kanjiroba","Opened in 2014","Unclimbed",1,0,0,0,0,"All","","","Unclimbed","",29.2833423,82.5527126
"185","KBNE","Kangbachen East","Nepal only","Kambachen East",7780,25525,"Kangchenjunga/Simhalila","Kangchenjunga-Janak","Opened in 2014","Unclimbed",1,0,0,0,0,"All","","","Unclimbed","",NA,NA
"186","KBON","Konabon","Nepal only","Kambon",6570,21555,"Dhaulagiri","Dhaulagiri-Mukut","Opened in 2003","Unclimbed",1,0,0,0,0,"All","","","Unclimbed","",28.6599965,83.3048561
"187","KCHN","Kangchung Nup","Nepal only","Khangchung Nup, Kangcho Nup, Cholo",6043,19826,"Khumbu","Khumbu-Rolwaling-Makalu","","Climbed",0,1,0,0,1953,"Spring","Apr 04","UK, New Zealand","Edmund Hillary, Wilfred Noyce, Charles Wylie","",NA,NA
"188","KCHS","Kangchung Shar","Nepal only","Khangchung, Kangcho Shar, UIAA Peak",6063,19892,"Khumbu","Khumbu-Rolwaling-Makalu","Opened in 2014","Climbed",1,0,0,0,1984,"Autumn","Nov 01","Yugoslavia","Francek Knez","Ascents reported by Jan Kielkowski: on 1 Nov 1984 by Francek Knez; on 21 Nov 1984 by Trevor Pilling",NA,NA
"189","KGRI","Khangri Shar","Nepal only","",6792,22283,"Khumbu","Khumbu-Rolwaling-Makalu","Opened in 2002","Unclimbed",1,0,0,0,0,"All","","","Unclimbed","",NA,NA
"190","KGRW","Khangri West","Nepal only","",6658,21844,"Khumbu","Khumbu-Rolwaling-Makalu","Opened in 2002","Unclimbed",1,0,0,0,0,"All","","","Unclimbed","",28.0232747,86.8008551
"191","KGUR","Kang Guru","Nepal only","Naurgaon",6981,22904,"Peri","Annapurna-Damodar-Peri","","Climbed",1,0,0,0,1955,"Summer","Jul 02","W Germany","Heinz Steinmetz, Fritz Lobbichler, Juergen Wellenkamp","",22.3404981,114.2053968
"192","KHAM","Khamjung","Nepal only","Khumjung, Khamjungar",6759,22175,"Damodar","Annapurna-Damodar-Peri","Opened in 2002","Climbed",1,0,0,0,1982,"All","","Japan","Climbed?","Likely climbed in 1982 by Japanese",NA,NA
"193","KHAT","Khatang","Nepal only","",6790,22277,"Rolwaling","Khumbu-Rolwaling-Makalu","","Climbed",1,0,0,0,1982,"Autumn","Oct 30","Japan, Nepal","Tatsumi Kawamura, Yoshimi Kitayama, Dorje Sherpa","",27.7573362,86.5957625
"194","KHAY","Khayang","Nepal & China","",6186,20295,"Manaslu/Mansiri","Manaslu-Ganesh","Opened in 2003","Unclimbed",1,0,0,0,0,"All","","","Unclimbed?","",NA,NA
"195","KHNG","Khung","Nepal & China","",6024,19764,"Kanti/Palchung","Far West-Kanjiroba","Opened in 2014","Unclimbed",1,0,0,0,0,"All","","","Unclimbed","",28.19590555,83.0179360897399
"196","KHON","Khongma Tse","Nepal only","Mehra Peak",5798,19022,"Khumbu","Khumbu-Rolwaling-Makalu","","Climbed",0,0,1,1978,0,"All","","","1st ascent unknown","",NA,NA
"197","KHUM","Khumbutse","Nepal & China","",6639,21781,"Khumbu","Khumbu-Rolwaling-Makalu","","Unclimbed",1,0,0,0,0,"All","","","Unclimbed","1989 Polish Everest team traversed S Smt of Khumbutse (~6400m)",28.0219052,86.872193
"198","KIMS","Kimshung","Nepal only","Kinshung, Tsangbu Ri",6781,22247,"Langtang","Langtang-Jugal","","Unclimbed",0,1,0,0,0,"All","","","","",28.2722575,85.5526252
"199","KIRA","Kirat Chuli","Nepal & India","Tent Peak",7362,24154,"Jongsang","Kangchenjunga-Janak","","Climbed",1,0,0,0,1939,"Summer","May 29","Switzerland, Germany","Ernst Grob, Herbert Paidar, Ludwig Schmaderer","",27.7914626,88.1971372
"200","KJER","Kanjeralwa","Nepal only","Kanchen Ruwa",6612,21693,"Kanjiroba","Far West-Kanjiroba","","Climbed",1,0,0,0,1973,"Spring","Apr 22","Japan, Nepal","Yasuaki Goshima, Koichi Kyogoku, Mingma Tensing Sherpa, Mingma Tsering Sherpa","",29.2371829,82.7897262
"201","KJRN","Kanjiroba North","Nepal only","",6858,22500,"Kanjiroba","Far West-Kanjiroba","Opened in 2014","Unclimbed",1,0,0,0,0,"All","","","Unclimbed","",NA,NA
"202","KJRS","Kanjiroba South","Nepal only","",6883,22582,"Kanjiroba","Far West-Kanjiroba","One permit for Kanjiroba's north and south summits","Climbed",1,0,0,0,1970,"Autumn","Nov 07","Japan","Hiroshi Okuda, Ichiryo Sato, Munehiro Sawada","",29.3759672,82.6378812
"203","KNAG","Kang Nagchugo","Nepal & China","Khang Nagchugo",6737,22103,"Rolwaling","Khumbu-Rolwaling-Makalu","Opened in 2002","Climbed",1,0,0,0,2008,"Autumn","Oct 17","USA","Joseph Puryear, David Gottlieb","",NA,NA
"204","KNTE","Kanti Himal East","Nepal & China","",6516,21378,"Kanti/Palchung","Far West-Kanjiroba","Opened in 2014","Unclimbed",1,0,0,0,0,"All","","","Unclimbed","",NA,NA
"205","KOGI","Kogi Khang North","Nepal & China","Kogi Kang North",6275,20587,"Kanti/Palchung","Far West-Kanjiroba","Opened in 2014","Unclimbed",1,0,0,0,0,"All","","","Unclimbed","",NA,NA
"206","KOJI","Kojichuwa Chuli","Nepal & China","",6439,21125,"Kanti/Palchung","Far West-Kanjiroba","Opened in 2003","Climbed",1,0,0,0,2010,"Spring","May 25","Japan","Ken Fujikawa, Yuta Kawamura, Satoshi Kimoto","",NA,NA
"207","KOJS","Kojichuwa South","Nepal & China","",6264,20551,"Kanti/Palchung","Far West-Kanjiroba","Opened in 2014","Unclimbed",1,0,0,0,0,"All","","","Unclimbed","",NA,NA
"208","KOTA","Kotang","Nepal & India","Kokthang, Kothang Kang",6148,20171,"Kangchenjunga/Simhalila","Kangchenjunga-Janak","","Climbed",1,0,0,0,1982,"Autumn","Oct 11","Inida","K. V. Cherian, Nima Tashi Sherpa, Ang Norbu, Ki Kami Sherpa","",NA,NA
"209","KTEG","Kangtega","Nepal only","Kantega, Khangtega, Kang Taiga",6783,22254,"Khumbu","Khumbu-Rolwaling-Makalu","","Climbed",1,0,0,0,1963,"Spring","Jun 05","New Zealand, USA","David Dornan, Tom Frost, Michael Gill, Jim Wilson","",27.7923233,86.817056
"210","KTOK","Kangtokal","Nepal only","Khang Tokal",6294,20650,"Dhaulagiri","Dhaulagiri-Mukut","Opened in 1997","Climbed",1,0,0,0,1962,"Spring","Jun 06","Japan, Nepal","Zenkichi Hirayama, Ang Temba Sherpa","",NA,NA
"211","KTSU","Kangtsune","Nepal only","Kangchunne, Kanchauni Lekh",6444,21142,"Kanjiroba","Far West-Kanjiroba","","Unclimbed",0,1,0,0,0,"All","","","Unclimbed","",NA,NA
"212","KTUN","Khatung Khang","Nepal only","",6484,21273,"Annapurna","Annapurna-Damodar-Peri","Opened in 2002","Climbed",1,0,0,0,1956,"Spring","Apr 12","Switzerland","Arthur Baumgartner, Marguerite Deriaz","",NA,NA
"213","KUML","Kumlung","Nepal only","Kang Kuru?",6355,20850,"Damodar","Annapurna-Damodar-Peri","Opened in 2002","Climbed",1,0,0,0,2008,"Autumn","Oct 14","France","Paulo Grobel, Paul Vulin","",NA,NA
"214","KUSU","Kusum Kanguru","Nepal only","Kusum Kang, Lamu",6370,20899,"Khumbu","Khumbu-Rolwaling-Makalu","","Climbed",0,0,1,1978,1981,"Autumn","Oct 07","New Zealand","Bill Denz","",NA,NA
"215","KWAN","Kwangde","Nepal only","",6186,20295,"Rolwaling","Khumbu-Rolwaling-Makalu","","Climbed",0,0,1,1978,1978,"Autumn","Nov 11","Japan","Takashi Iwahashi, Yoshihisa Ishikawa, Seiji Ogawa","",27.6139809,86.7148073
"216","KYAB","Kyabura","Nepal only","Ghabur, Temachungi",6294,20650,"Kangchenjunga/Simhalila","Kangchenjunga-Janak","Opened in 2002","Unclimbed",1,0,0,0,0,"All","","","Unclimbed?","",NA,NA
"217","KYAS","Kyashar","Nepal only","Peak 43, Tangnag Tseng",6770,22211,"Khumbu","Khumbu-Rolwaling-Makalu","Opened in 2002","Climbed",1,0,0,0,2003,"Autumn","Oct 18","UK, Austria, Swiss","Bruce Normand, Sam Broderick, Andreas Frank","",27.7548759,86.8223253
"218","KYAZ","Kyazo Ri","Nepal only","Kyajo Ri",6151,20180,"Khumbu","Khumbu-Rolwaling-Makalu","Opened in 2002 as trekking peak","Climbed",0,0,1,2002,2002,"Autumn","Oct 20","UK, France","Duncan Wilson, Vincent Marche","",NA,NA
"219","KYR1","Kyungka Ri 1","Nepal only","Kyungya Ri 1",6599,21650,"Langtang","Langtang-Jugal","Opened in 2003","Climbed",1,0,0,0,2017,"Autumn","Oc 15","S Korea","Han San-Hum, Oh Chi-Wan","Ascent claimed by Italians in 1963 (Lino Andreotti) by likely on different peak",28.2968281,85.6677275
"220","KYR2","Kyungka Ri 2","Nepal & China","Kyungya Ri 2",6506,21345,"Langtang","Langtang-Jugal","Opened in 2003","Unclimbed",1,0,0,0,0,"All","","","Unclimbed","",28.3031784,85.6624294
"221","LAMJ","Lamjung Himal","Nepal only","",6983,22910,"Annapurna","Annapurna-Damodar-Peri","","Climbed",1,0,0,0,1974,"Spring","Apr 25","UK","Derrick Chamberlain, Phillip Neame","",28.4895076,84.1886093
"222","LAMP","Lampo","Nepal & China","Langpo Kangri, Ganesh VI",6648,21811,"Ganesh/Shringi","Manaslu-Ganesh","","Unclimbed",0,1,0,0,0,"All","","","Unclimbed","",-0.7596,119.717
"223","LANG","Langtang Lirung","Nepal only","Langtang",7227,23711,"Langtang","Langtang-Jugal","","Climbed",1,0,0,0,1978,"Autumn","Oct 24","Japan, Nepal","Seishi Wada, Pemba Tsering Sherpa","",28.256616,85.5168032
"224","LANR","Langtang Ri","Nepal & China","",7205,23638,"Langtang","Langtang-Jugal","","Climbed",1,0,0,0,1981,"Autumn","Oct 10","Japan, Nepal","Soichi Nasu, Makihiro Wakao, Noboru Yamada, Ang Rinji Sherpa","",28.3823961,85.6839464
"225","LANY","Langtang Yubra","Nepal only","Yubra Himal",6048,19843,"Langtang","Langtang-Jugal","Opened in 2016","Unclimbed",0,0,1,0,2018,"Autumn","Oct 21","Australia, Netherands, Nepal","Karen De Lathouder, Elizabeth Finden, Edith Jankowski, Chris Jones, Warren Townsden, Lhakpa Nuru Sherpa, Mingma Sherpa, Nawang Sherpa, Phurba Sherpa, Sona Sherpa","It is unclear from leader's photo whether the team climbed Langtang Yubra or a ridge between Langtang Yubra and Yubra (6264m)",NA,NA
"226","LARK","Larkya Peak","Nepal only","Granite Peak, Naike Peak",6416,21050,"Manaslu/Mansiri","Manaslu-Ganesh","","Climbed",0,0,1,0,2017,"Autumn","Sep 27","Georgia","Archil Badriashvili, Giorgi Tepnadze, Bakar Gelashvili","",28.6279873,84.5435306
"227","LAS2","Lashar II","Nepal & China","Loshar II",6803,22320,"Janak/Ohmi Kangri","Kangchenjunga-Janak","Opened in 2002","Unclimbed",1,0,0,0,0,"All","","","Unclimbed","",26.61306545,60.1980189271957
"228","LASA","Lasa","Nepal & China","",6189,20305,"Api/Byas Risi/Guras","Far West-Kanjiroba","Opened in 2014","Unclimbed",1,0,0,0,0,"All","","","Unclimbed","",64.6863136,97.7453061
"229","LASH","Lashar I","Nepal & China","Loshar I",6842,22448,"Janak/Ohmi Kangri","Kangchenjunga-Janak","Opened in 2002","Climbed",1,0,0,0,2005,"Autumn","Oct 12","Slovenia","Andrej Stremfelj, Miha Habjan","",26.72771535,60.1797204805773
"230","LCHA","Lachama Chuli","Nepal & China","Kubi Kangri, Kubi Dongdong",6721,22051,"Nalakankar/Chandi/Changla","Far West-Kanjiroba","Opened in 2003","Climbed",1,0,0,0,2007,"Autumn","Sep 14","Japan","Atsushi Senda, Ryouta Fujii, Keizou Ishikawa, Hiroshi Kobayashi, Kouhei Kotani, Naoki Shimozato, Yuhki Tani","",NA,NA
"231","LCHN","Lachama North","Nepal & China","",6628,21745,"Nalakankar/Chandi/Changla","Far West-Kanjiroba","Opened in 2014","Unclimbed",1,0,0,0,0,"All","","","Unclimbed","",NA,NA
"232","LDAK","Langdak","Nepal only","",6220,20407,"Rolwaling","Khumbu-Rolwaling-Makalu","Opened in 2014","Climbed",1,0,0,0,2015,"Autumn","Oct 05","Nepal","Dawa Gyalje Sherpa, Nima Tenji Sherpa, Tashi Sherpa","",NA,NA
"233","LDNG","Langdung","Nepal & China","Ripumutse",6326,20755,"Rolwaling","Khumbu-Rolwaling-Makalu","Opened in 2014","Climbed",1,0,0,0,2017,"Winter","Dec 20","Nepal","Nima Tenji Sherpa, Dawa Gyalje Sherpa, Dawa Yangzum Sherpa, Pasang Kitar Sherpa","",NA,NA
"234","LEOE","Leonpo Gang East","Nepal & China","Gyalgen Peak",6733,22090,"Jugal","Langtang-Jugal","Opened in 2014","Climbed",1,0,0,0,1955,"Spring","May 11","UK, Nepal","Monica Jackson, Elizabeth Stark, Mingma Gyalgen Sherpa, Ang Temba Sherpa","Peak named after sirdar Mingma Gyalgen Sherpa",NA,NA
"235","LEON","Leonpo Gang","Nepal & China","Dorje Pahad, Big White Peak",6979,22897,"Jugal","Langtang-Jugal","","Climbed",1,0,0,0,1962,"Spring","May 03","Japan","Tadashi Morita, Kazunari Yasuhisa","",28.1964383,85.8001908
"236","LHAS","Lha Shamma","Nepal only","Lhasharma, Pinnacle Peak",6412,21037,"Kanjiroba","Far West-Kanjiroba","Opened in 2014","Climbed",1,0,0,0,1962,"Spring","May 14","UK, Nepal","Josephine Scarr, Barbara Spark, Mingma Tsering Sherpa, Pemba Norbu Sherpa","",NA,NA
"237","LHAY","Lhayul Peak","Nepal only","",6395,20981,"Api/Byas Risi/Guras","Far West-Kanjiroba","Opened in 2002","Unclimbed",1,0,0,0,0,"All","","","Unclimbed","",NA,NA
"238","LHOM","Lhotse Middle","Nepal & China","Lhotse Intermediate",8410,27592,"Khumbu","Khumbu-Rolwaling-Makalu","Opened in 2001","Climbed",1,0,0,0,2001,"Spring","May 23","Russia","Sergei Timofeev, Alexei Bolotov, Piotr Kouznetsov, Evgeni Vinogradski","",27.9599193,86.9399794
"239","LHOT","Lhotse","Nepal & China","",8516,27940,"Khumbu","Khumbu-Rolwaling-Makalu","","Climbed",1,0,0,0,1956,"Spring","May 18","Switzerland","Fritz Luchsinger, Ernst Reiss","",48.8781677,2.3262361
"240","LIK1","Linkhu Chuli Shar","Nepal only","Bigphera-Go Shar, Pigpferago Shar, Linkhu Chuli I",6719,22044,"Rolwaling","Khumbu-Rolwaling-Makalu","Opened in 2003","Climbed",1,0,0,0,2013,"Autumn","Nov 13","Germany","Ines Papert","",NA,NA
"241","LIK2","Linkhu Chuli Nup","Nepal only","Bigphera-Go Nup, Pigpferago Nup, Linkhu Chuli II",6659,21847,"Rolwaling","Khumbu-Rolwaling-Makalu","Opened in 2003","Climbed",1,0,0,0,1960,"Autumn","Oct 21","France, Nepal","Alain Barbezat, Cecile Barbezat, Nawang Dorje Sherpa","",NA,NA
"242","LING","Lingtren","Nepal & China","",6713,22024,"Khumbu","Khumbu-Rolwaling-Makalu","Opened in 2002","Climbed",1,0,0,0,1935,"Summer","Aug","UK","Eric Shipton, Dan Bryant","",28.0348067,86.8082299
"243","LMOC","Langmoche Ri","Nepal only","",6552,21496,"Rolwaling","Khumbu-Rolwaling-Makalu","Opened in 2002","Climbed",1,0,0,0,2012,"Autumn","Nov 17","USA","Roberto Villanueva, Alan Rousseau","",NA,NA
"244","LNAK","Lhonak","Nepal only","Rifil Peak",6070,19915,"Janak/Ohmi Kangri","Kangchenjunga-Janak","Opened in 2014","Unclimbed",1,0,0,0,0,"All","","","Unclimbed","",27.7900712,88.0356137
"245","LNGK","Langchung Khang","Nepal & China","Langpo Chung",6786,22264,"Jongsang","Kangchenjunga-Janak","Opened in 2002","Unclimbed",1,0,0,0,0,"All","","","Unclimbed?","",27.8562819,88.1778517
"246","LNJU","Langju","Nepal only","Lajo Dada",6426,21083,"Ganesh/Shringi","Manaslu-Ganesh","Opened in 2014","Climbed",1,0,0,0,2017,"Autumn","Oct 17","Japan","Norifumi Fukuda, Kojuro Hagihara, Yudai Suzuki","",32.33333,80.33333
"247","LNKE","Lunchhung Kamo East","Nepal only","",6024,19764,"Kanti/Palchung","Far West-Kanjiroba","","Climbed",0,1,0,0,1999,"Summer","Jul 09","Japan, Nepal","Tamotsu Ohnishi, Takehiko Yanagihara, Chuldim Nuru Sherpa, Kancha Dawa Sherpa","",NA,NA
"248","LNPO","Langpo","Nepal & India","Longpo",6965,22851,"Jongsang","Kangchenjunga-Janak","","Climbed",1,0,0,0,1909,"Autumn","Sep 14","UK","A. M. Kellas","",24.6421,105.534
"249","LOBE","Lobuje East","Nepal only","Lobuche East",6090,19980,"Khumbu","Khumbu-Rolwaling-Makalu","","Climbed",0,0,1,1978,1984,"Spring","Apr 25","USA, Nepal","Larry Nielson, Any Gyaltsen Sherpa","Possibly climbed by Japanese in 1979 (unverified)",NA,NA
"250","LOBW","Lobuje West","Nepal only","Lobuche West",6135,20128,"Khumbu","Khumbu-Rolwaling-Makalu","Converted to trekking peak in 2002","Climbed",0,0,1,2002,1984,"Autumn","Sep 28","Japan","Yuji Kawakura, Yoshihiro Taguchi","",NA,NA
"251","LSAM","Lungsampa","Nepal only","Lung Sampa, Lumsumna",6500,21325,"Khumbu","Khumbu-Rolwaling-Makalu","Opened in 2002","Climbed",1,0,0,0,2014,"All","","Spain","Jordi Corominas, Jordi Tosas","Tosas and Corominas unconfirmed ascent in 2014 via SSW Ridge",NA,NA
"252","LSHR","Lhotse Shar","Nepal & China","Lhotse II",8382,27500,"Khumbu","Khumbu-Rolwaling-Makalu","","Climbed",1,0,0,0,1970,"Spring","May 12","Austria","Josef Mayerl, Rolf Walter","",27.9587777,86.9437958
"253","LSIS","Langshisa Ri","Nepal only","Langsisa Ri",6412,21037,"Jugal","Langtang-Jugal","Converted to trekking peak in 2002","Climbed",0,0,1,2002,1982,"Spring","Apr 23","Japan, Nepal","Takuya Kajimoto, Pasang Norbu Sherpa","",28.2177782,85.714613
"254","LUGU","Lugula","Nepal & China","",6899,22635,"Damodar","Annapurna-Damodar-Peri","Opened in 2014","Climbed",1,0,0,0,2010,"Autumn","Nov 02","France","Renald Guillaune","1st official ascent in Spring 2014 by S Koreans",28.8905703,84.2446501
"255","LUN2","Lunag II","Nepal only","",6812,22349,"Rolwaling","Khumbu-Rolwaling-Makalu","Requires permit for Jobo Rinjang","Climbed",0,1,0,0,2010,"Autumn","Oct 26","France","Mathieu Detrie, Max Belleville, Mathiew Maynadier, Sebastien Ratel","",16.659415,121.3687764
"256","LUNG","Lungchhung","Nepal & China","",6043,19826,"Kanti/Palchung","Far West-Kanjiroba","Opened in 2014","Unclimbed",1,0,0,0,0,"All","","","Unclimbed","",27.1222437,87.229431047046
"257","LUNR","Lunag Ri","Nepal & China","Lunag I, Rongshar Ri I, Ondrej Peak",6895,22621,"Rolwaling","Khumbu-Rolwaling-Makalu","Requires permit for Jobo Rinjang","Unclimbed",0,1,0,0,0,"All","","","","",28.0535945,86.5500784
"258","LUNW","Lunag West","Nepal & China","",6492,21299,"Rolwaling","Khumbu-Rolwaling-Makalu","Requires permit for Jobo Rinjang","Climbed",0,1,0,0,2013,"Autumn","Oct 22","USA","Scott Adamson, Chris Wright","",NA,NA
"259","MACH","Machhapuchhare","Nepal only","",6993,22943,"Annapurna","Annapurna-Damodar-Peri","Closed","Unclimbed",0,1,0,0,0,"All","","","Unclimbed","Rumored that one New Zealander (Bill Denz) summited by the N Ridge-NE Face route in the late 1970s",28.5265081,83.9075619173367
"260","MAK2","Makalu II","Nepal & China","Kangchungtse",7678,25190,"Makalu","Khumbu-Rolwaling-Makalu","","Climbed",1,0,0,0,1954,"Autumn","Oct 22","UK, Nepal","Jean Franco, Lionel Terray, Gyaltsen Norbu Sherpa, Pa Norbu Sherpa","",27.9140498,87.0804271
"261","MAKA","Makalu","Nepal & China","",8485,27838,"Makalu","Khumbu-Rolwaling-Makalu","","Climbed",1,0,0,0,1955,"Spring","May 15","France","Jean Couzy, Lionel Terray","",27.8911991,87.0886361
"262","MALA","Malanphulan","Nepal only","Melanphulan, Hinku Ri",6573,21565,"Khumbu","Khumbu-Rolwaling-Makalu","Opened in 2014","Climbed",1,0,0,0,2000,"Spring","Apr 28","USA","Peter Carse, Amy Bullard","",NA,NA
"263","MANA","Manaslu","Nepal only","Kutang I, Peak 30",8163,26781,"Manaslu/Mansiri","Manaslu-Ganesh","","Climbed",1,0,0,0,1956,"Spring","May 09","Japan, Nepal","Toshio Imanishi, Gyaltsen Norbu Sherpa","",28.5499829,84.5597284
"264","MANN","Manaslu North","Nepal only","Manaslu II",6994,22946,"Manaslu/Mansiri","Manaslu-Ganesh","","Climbed",1,0,0,0,1964,"Autumn","Oct 25","Netherlands, Austria, Nepal","Alfons Driessen, Jan De Lint, Hubert Schriebl, Ila Tshering Sherpa, Nima Tenzing Sherpa","1st ascent disputed by Anders Bolinder",28.5839234,84.5491371
"265","MANP","Manapathi","Nepal only","",6380,20932,"Dhaulagiri","Dhaulagiri-Mukut","","Climbed",1,0,0,0,1956,"Spring","Apr 25","Argentina, Nepal","Emiliano Huerta, Ayiwa Sherpa","1st ascent?",NA,NA
"266","MARD","Mardi Himal","Nepal only","",5553,18219,"Annapurna","Annapurna-Damodar-Peri","","Climbed",0,0,1,1978,1962,"Spring","Apr 23","UK, Nepal","J. O. M. Roberts, Ang Tshering Sherpa, Tenzing Nindra Sherpa","",28.4737691,83.9275346
"267","MARI","Mariyang","Nepal & China","",6528,21417,"Kanti/Palchung","Far West-Kanjiroba","Opened in 2003","Unclimbed",1,0,0,0,0,"All","","","Unclimbed","",28.4875762,95.2171727
"268","MARW","Mariyang West","Nepal & China","",6455,21178,"Kanti/Palchung","Far West-Kanjiroba","Opened in 2014","Unclimbed",1,0,0,0,0,"All","","","Unclimbed","",NA,NA
"269","MATA","Matathumba","Nepal only","Matatumpa, Ghyuthumba East",5767,18921,"Kanjiroba","Far West-Kanjiroba","","Climbed",0,1,0,0,1961,"Spring","May 16","UK, Nepal","John Tyson, James Burnet, John Earle, Mingma Tsering, Ang Temba Sherpa","",NA,NA
"270","MAYT","Mayonthang Kang","Nepal & China","Mayun Thang Khang",6449,21158,"Kanti/Palchung","Far West-Kanjiroba","Opened in 2014","Unclimbed",1,0,0,0,0,"All","","","Unclimbed","",NA,NA
"271","MERA","Mera Peak","Nepal only","",6470,21227,"Khumbu","Khumbu-Rolwaling-Makalu","","Climbed",0,0,1,1978,1953,"Spring","May","UK, Nepal","J. O. M. Roberts, Sen Tenzing Sherpa","Climbed ""false Mera"" 6476m?  ""True Mera"" unclimbed?",27.7098398,86.8686622
"272","MERR","Merra","Nepal only","",6334,20781,"Kangchenjunga/Simhalila","Kangchenjunga-Janak","Opened in 2002","Climbed",1,0,0,0,2006,"Autumn","Oct 18","Denmark","Claus Ostergaard","",66.91177635,13.3539947281637
"273","MERS","Mera South","Nepal only","",6064,19895,"Khumbu","Khumbu-Rolwaling-Makalu","Opened in 2002","Unclimbed",1,0,0,0,0,"All","","","Unclimbed?","",7.2723152,36.3315245
"274","MING","Mingbo Ri","Nepal only","",6207,20364,"Khumbu","Khumbu-Rolwaling-Makalu","","Unclimbed",0,1,0,0,0,"All","","","Unclimbed","",NA,NA
"275","MNSL","Mansail","Nepal only","Manshail",6235,20456,"Mukut/Mustang","Dhaulagiri-Mukut","Opened in 2014","Climbed",1,0,0,0,2014,"Autumn","Sep 29","Japan","Yukiko Inoue, Eri Hasegawa, Mariko Nakamura, Kei Taniguchi","",NA,NA
"276","MNSS","Mansail South","Nepal only","Manshail South",6248,20499,"Mukut/Mustang","Dhaulagiri-Mukut","Opened in 2014","Unclimbed",1,0,0,0,0,"All","","","Unclimbed","",NA,NA
"277","MOJC","Mojca","Nepal only","Mojka",6024,19764,"Kangchenjunga/Simhalila","Kangchenjunga-Janak","Opened in 2002","Climbed",1,0,0,0,1974,"Autumn","Oct 11","Yugoslavia","Stane Belak, Danilo Cedilnik","Illegal ascent",46.846394,25.104374
"278","MPNW","Manapathi NW","Nepal only","",6384,20945,"Dhaulagiri","Dhaulagiri-Mukut","","Climbed",0,1,0,0,1977,"Spring","Apr 20","Italy, UK, W Germany","Reinhold Messner, Leo Dickinson, Eric Jones, Otto Wiedemann","",NA,NA
"279","MUKT","Mukut Himal","Nepal only","Mukot Himal, Langru",6087,19970,"Mukut/Mustang","Dhaulagiri-Mukut","Opened in 2014","Climbed",1,0,0,0,1967,"Autumn","Sep","Netherlands","Alfons J. Driessen, Michiel van Mourik Broekman","1st ascent if team was actually on this peak",28.7797894,83.4607345
"280","MUPK","Mustang Peak","Nepal only","",6229,20436,"Mukut/Mustang","Dhaulagiri-Mukut","","Climbed",0,1,0,0,2001,"Autumn","Oct 07","Japan, Nepal","Tomatsu Ohnishi, Koji Mizutani, Takehiko Yanagihara, Katsuhiko Asahi, Mingma Nuru Sherpa, Chuldin Nuru Sherpa, Kancha Dawa Sherpa","Not same peak as Mustang Himal (6195m) on current Ministry list.",58.6442634,-134.591263
"281","MUST","Mustang Himal","Nepal only","",6195,20325,"Mukut/Mustang","Dhaulagiri-Mukut","Opened in 2014","Climbed",1,0,0,0,2014,"Autumn","Nov 02","USA","Melissa Arnot, Ben Jones, Jon Mancuso","",29.2041398,83.7964806916249
"282","MYAG","Myagdi Matha","Nepal only","",6273,20581,"Dhaulagiri","Dhaulagiri-Mukut","","Unclimbed",0,1,0,0,0,"All","","","Unclimbed?","",NA,NA
"283","NAG1","Nangpai Gosum I","Nepal & China","Nagpai Gosum I, Cho Aui",7321,24019,"Khumbu","Khumbu-Rolwaling-Makalu","Opened in 2002","Climbed",1,0,0,0,2017,"Autumn","Oct 03","Germany","Jost Kobusch","",28.0729512,86.6124231
"284","NAG2","Nangpai Gosum II","Nepal & China","Nagpai Gosum II, Chamar",7287,23907,"Khumbu","Khumbu-Rolwaling-Makalu","Opened in 2002","Unclimbed",1,0,0,0,0,"All","","","Unclimbed","",28.070525,86.6355487
"285","NALA","Nalakankar North","Nepal & China","",6062,19888,"Nalakankar/Chandi/Changla","Far West-Kanjiroba","","Climbed",1,0,0,0,2000,"Summer","Jul 06","Japan, Nepal","Takehiko Yanagihara, Ang Phurba Sherpa","",NA,NA
"286","NALS","Nalakankar South","Nepal & China","",6024,19764,"Nalakankar/Chandi/Changla","Far West-Kanjiroba","","Climbed",0,1,0,0,2000,"Summer","Jul 07","Japan, Nepal","Tamotsu Ohnishi, Takehiko Yanagihara, Chuldim Nuru Sherpa, Kancha Dawa Sherpa","",NA,NA
"287","NAM2","Nampa II","Nepal only","",6585,21604,"Api/Byas Risi/Guras","Far West-Kanjiroba","Opened in 2002","Unclimbed",1,0,0,0,0,"All","","","Unclimbed","",43.6032454,-116.6079167
"288","NAM3","Nampa III","Nepal only","Nampa Chuli",6611,21690,"Api/Byas Risi/Guras","Far West-Kanjiroba","Opened in 2002","Unclimbed",1,0,0,0,0,"All","","","Unclimbed","",NA,NA
"289","NAMP","Nampa","Nepal only","Chisel Peak",6729,22077,"Api/Byas Risi/Guras","Far West-Kanjiroba","","Climbed",1,0,0,0,1972,"Spring","May 05","Japan","Fukutoshi Kimura, Susumu Takahashi","",43.5737361,-116.559631
"290","NAMS","Nampa South","Nepal only","",6130,20112,"Api/Byas Risi/Guras","Far West-Kanjiroba","Opened in 2002","Unclimbed",1,0,0,0,0,"All","","","Unclimbed?","",43.5537615,-116.601138718014
"291","NAN2","Nangamari II","Nepal only","",6209,20371,"Janak/Ohmi Kangri","Kangchenjunga-Janak","","Climbed",1,0,0,0,2016,"Autumn","Oct 17","Japan","Tsuneo Shigehiro, Kensuke Iwai, Kiyo Kuroda, Shiro Matsunaka, Yusuke Morimoto, Kanji Totegi, Miyoko Nagase, Masayuki Takenaka, Saori Tatsuno","",NA,NA
"292","NANG","Nangamari I","Nepal & China","",6547,21480,"Janak/Ohmi Kangri","Kangchenjunga-Janak","Opened in 2003","Climbed",1,0,0,0,2010,"Autumn","Nov 05","Australia","Timothy Macartney-Snape, David Barton","",NA,NA
"293","NAUL","Naulekh","Nepal only","",6340,20801,"Khumbu","Khumbu-Rolwaling-Makalu","Opened in 2002","Climbed",1,0,0,0,1954,"Spring","Jun 08","New Zealand","Colin Todd, Bill Beaven","",27.6875828,86.9024898
"294","NAYA","Naya Kanga","Nepal only","Kangja Chuli, Ghanja La Chuli",5863,19236,"Jugal","Langtang-Jugal","","Climbed",0,0,1,1978,0,"All","","","1st ascent unknown","",28.168624,85.5483906
"295","NCHU","Nupchu","Nepal only","Sharphu IV",6172,20249,"Janak/Ohmi Kangri","Kangchenjunga-Janak","","Climbed",0,1,0,0,1962,"Spring","May 20","Japan","Takayuki Tsubaki, Chotare Sherpa","",NA,NA
"296","NEMJ","Nemjung","Nepal only","",7140,23425,"Peri","Annapurna-Damodar-Peri","","Climbed",1,0,0,0,1983,"Spring","Oct 27","Japan, Nepal","Makito Minami, Wataru Saito, Ken Takahashi, Kirki Lama","",NA,NA
"297","NEPA","Nepal Peak","Nepal & India","",7177,23547,"Jongsang","Kangchenjunga-Janak","","Climbed",1,0,0,0,1930,"Spring","May 24","Austria","Erwin Schneider","Schneider may have only gone to the SW Peak (7130m) in which case the first ascent was by the Germans in 1936",27.7768189,88.1826901
"298","NGAP","Nepal Gap Peak","Nepal & India","Nepal Gyap Peak",7007,22989,"Kangchenjunga/Simhalila","Kangchenjunga-Janak","Opened in 2014","Unclimbed",1,0,0,0,0,"All","","","Unclimbed?","",NA,NA
"299","NGO2","Ngojumba Kang II","Nepal & China","",7743,25404,"Khumbu","Khumbu-Rolwaling-Makalu","","Climbed",1,0,0,0,1965,"Spring","Apr 24","Japan, Nepal","Naomi Uemura, Pemba Tenzing Sherpa","",28.1058708,86.7054038
"300","NGO3","Ngojumba Kang III","Nepal & China","Hillary Peak",7681,25200,"Khumbu","Khumbu-Rolwaling-Makalu","Opened in 2014 as Hillary Peak","Unclimbed",1,0,0,0,0,"All","","","Unclimbed","",NA,NA
"301","NGOJ","Ngojumba Kang I","Nepal & China","Ngozumba Kang, Ngozumba Ri, Tenzing Peak",7916,25971,"Khumbu","Khumbu-Rolwaling-Makalu","Opened in 2014 as Tenzing Peak","Climbed",1,0,0,0,1982,"Autumn","Nov 02","S Korea, Nepal","Kim Young-Han, Ang Tshering Sherpa, Dorje Sherpa","",NA,NA
"302","NGOR","Nagoru","Nepal only","",6165,20226,"Peri","Annapurna-Damodar-Peri","","Climbed",0,1,0,0,2016,"Autumn","Oct 21","Austria, Nepal","Wolfgang Drexler, Lawang Tamang","",NA,NA
"303","NILC","Nilgiri Central","Nepal only","",6940,22769,"Annapurna","Annapurna-Damodar-Peri","","Climbed",1,0,0,0,1979,"Spring","Apr 30","Japan","Kohichi Sakata, Yasuo Tsuda","",28.6783794,83.7353837
"304","NILN","Nilgiri North","Nepal only","",7061,23166,"Annapurna","Annapurna-Damodar-Peri","","Climbed",1,0,0,0,1962,"Autumn","Oct 19","Netherlands, France, Nepal","Lionel Terray, H. G. Van Lookern Campagne, P. Van Lookern Campagne, P. F. J. Van Lookern Campagne, Wangdi Sherpa","",28.689076,83.7440554
"305","NILS","Nilgiri South","Nepal only","",6839,22438,"Annapurna","Annapurna-Damodar-Peri","","Climbed",1,0,0,0,1978,"Autumn","Oct 10","Japan","Kazuo Mitsui, Taichi Fujimatsu, Yoshiaki Kato, Nobuhito Morota, Seiji Tanaka, Hideki Yoshida","",28.6541082,83.7296456
"306","NORB","Norbu Kang","Nepal only","Norbu Khang",6085,19964,"Kanjiroba","Far West-Kanjiroba","Opened in 2002","Climbed",1,0,0,0,2003,"Summer","Jun 25","Japan, Nepal","Tamotsu Ohnishi, Tazuko Inoue, Koji Mizutani, Takehiro Yanigahara, Chuldim Nuru Sherpa, Kancha Dawa Sherpa","2010 German team says 2003 Japanese team did not climb main peak",47.4878529,3.9072438
"307","NPHU","Narphu","Nepal only","",5921,19426,"Damodar","Annapurna-Damodar-Peri","","Climbed",1,0,0,0,2014,"Autumn","Nov 22","UK, Nepal","Brian Jackson, Heather Bentley, Catherine Husted, Dawn Richardson, James Salt, Rhiannon Thomson, Mingma Dorje Sherpa, Pasang Sherpa Shikhar Pandey","1st official ascent",28.7351873,84.2227485168961
"308","NREK","Nirekha","Nepal only","",6159,20207,"Khumbu","Khumbu-Rolwaling-Makalu","Opened in 2002 as trekking peak","Climbed",0,0,1,2002,0,"All","","","1st ascent unknown","Climbing history unknown",27.9775114,86.7629029
"309","NUMB","Numbur","Nepal only","",6958,22828,"Rolwaling","Khumbu-Rolwaling-Makalu","","Climbed",1,0,0,0,1963,"Spring","May 29","Japan, Nepal","Hiroshi Matsuo, Mingma Tsering Sherpa","",27.7542227,86.572647
"310","NUMR","Numri","Nepal only","",6635,21768,"Khumbu","Khumbu-Rolwaling-Makalu","Opened in 2002","Climbed",1,0,0,0,2002,"Autumn","Nov 07","Germany","Olaf Rieck, Carsten Schmidt, Lydia Schubert","",NA,NA
"311","NUPE","Nuptse East I","Nepal only","",7795,25574,"Khumbu","Khumbu-Rolwaling-Makalu","Requires permit for Nuptse","Climbed",1,0,0,0,2003,"Autumn","Nov 02","Russia","Valeri Babanov, Yuri Kochelenko","",NA,NA
"312","NUPK","Nupche Kang","Nepal & China","Friendship Peak, Nupche Himal",6576,21575,"Khumbu","Khumbu-Rolwaling-Makalu","Opened in 2014","Climbed",1,0,0,0,1964,"Spring","Apr 06","W Germany, Nepal","Fritz Stammberger, Aila Sherpa","",NA,NA
"313","NUPL","Nup La Kang","Nepal & China","Nupla Khang",6861,22510,"Khumbu","Khumbu-Rolwaling-Makalu","Opened in 2014","Climbed",1,0,0,0,2018,"Autumn","Nov 02","USA, Norway","","",NA,NA
"314","NUPT","Nuptse","Nepal only","",7864,25801,"Khumbu","Khumbu-Rolwaling-Makalu","","Climbed",1,0,0,0,1961,"Spring","May 16","UK, Nepal","Dennis Davis, Tashi Sherpa","1st ascent of W Smt (NUPT-884-01)",27.8602077,86.8060351
"315","OHMI","Ohmi Kangri","Nepal & China","",6839,22438,"Janak/Ohmi Kangri","Kangchenjunga-Janak","","Climbed",1,0,0,0,1985,"Spring","Apr 14","Switzerland","Andre Rieder, Alain Vaucher","",NA,NA
"316","OMBG","Ombigaichen","Nepal only","Puma Dablam",6340,20801,"Khumbu","Khumbu-Rolwaling-Makalu","Opened in 2002 as trekking peak","Climbed",0,0,1,2002,1960,"Autumn","Nov 18","New Zealand, Nepal","Jim Milledge, Ang Tsering Sherpa","",27.8530782,86.882962
"317","OMBK","Ombak Himal","China only","",6300,20669,"Janak/Ohmi Kangri","Kangchenjunga-Janak","","Unclimbed",0,1,0,0,0,"All","","","Unclimbed?","",NA,NA
"318","OMIT","Omitso Go","Nepal & China","Omi Tso Go",6332,20774,"Rolwaling","Khumbu-Rolwaling-Makalu","Opened in 2014","Unclimbed",1,0,0,0,0,"All","","","Unclimbed","",NA,NA
"319","PALD","Paldor","Nepal only","Bharange",5903,19367,"Ganesh/Shringi","Manaslu-Ganesh","","Climbed",0,0,1,1978,1949,"Summer","","UK, Nepal","H. W. Tilman, Peter Lloyd, Tenzing Sherpa, Da Namgyal Sherpa","1st ascent claimed in 1949, but actual 1st ascent may have been in 1974 by John Cleare and Ian Howell",28.2776048,85.1871278
"320","PAMA","Pama Himal","Nepal & China","",6300,20669,"Ganesh/Shringi","Manaslu-Ganesh","Opened in 2014","Unclimbed",1,0,0,0,0,"All","","","Unclimbed","",NA,NA
"321","PAN1","Panpoche 1","Nepal only","Pang Phunch 1, Kutang Himal",6620,21719,"Manaslu/Mansiri","Manaslu-Ganesh","Opened in 2003","Climbed",1,0,0,0,2019,"Autumn","Oct 03","Georgia","Archil Badriashvi, Bakari Gelashvili, Giorgi Tepnadze","",NA,NA
"322","PAN2","Panpoche 2","Nepal only","Pang Phunch 2",6504,21339,"Manaslu/Mansiri","Manaslu-Ganesh","Opened in 2003","Climbed",1,0,0,0,2019,"Autumn","Sep 22","Georgia","Archil Badriashvi, Bakari Gelashvili, Giorgi Tepnadze","",NA,NA
"323","PANB","Panbari","Nepal only","",6905,22654,"Peri","Annapurna-Damodar-Peri","Opened in 2002","Climbed",1,0,0,0,2006,"Autumn","Sep 29","Japan","Yoshimi Kato, Gakuto Komiya, Sayaka Koyama, Kenro Nakajima, Yosuke Urabe","",26.1999813,91.9775417
"324","PAND","Pandra","Nepal only","",6670,21883,"Janak/Ohmi Kangri","Kangchenjunga-Janak","Opened in 2002","Climbed",1,0,0,0,2002,"Autumn","Oct 16","Denmark","Allan Christensen, Bo Belvedere Christensen, Jan Mathorne","",30.6824948,78.588251
"325","PANG","Pangbuk Ri","Nepal & China","",6625,21736,"Rolwaling","Khumbu-Rolwaling-Makalu","Opened in 2002","Climbed",1,0,0,0,2011,"Autumn","Nov 11","USA","David Gottlieb, Chad Kellogg","The Pangbuk that Bourdillon and Colledge climbed on May 29, 1952 was south of Menlung La (thus not Pangbuk Ri)",NA,NA
"326","PANN","Pangbuk North","Nepal & China","Jobo LeCoultre",6478,21253,"Rolwaling","Khumbu-Rolwaling-Makalu","","Climbed",0,1,0,0,2013,"Autumn","Nov 01","USA","Scott Adamson, Christopher Wright","",NA,NA
"327","PANT","Panalotapa","Nepal only","Paniyo Tapa, Paniyo Tippa",6687,21939,"Rolwaling","Khumbu-Rolwaling-Makalu","Opened in 2003","Climbed",1,0,0,0,1955,"Spring","May","UK","Peter Boultbee, Dennis Davis","",NA,NA
"328","PARC","Parchamo","Nepal only","Parchermo, Parchemuche, Pachermo",6279,20600,"Rolwaling","Khumbu-Rolwaling-Makalu","","Climbed",0,0,1,1978,1955,"Spring","Apr","UK","Peter Boultbee, Denis Davis","",27.8377252,86.5472278
"329","PASA","Pasang Lhamu Chuli","Nepal & China","Jasemba",7350,24114,"Khumbu","Khumbu-Rolwaling-Makalu","","Climbed",1,0,0,0,1986,"Autumn","Oct 12","Japan","Katsushi Emura, Yukitoshi Endo, Katsuo Matsuki, Yoshihiro Shikoda","",28.0729512,86.6124231
"330","PASH","Pashuwo","Nepal & China","Pashubo",6177,20266,"Ganesh/Shringi","Manaslu-Ganesh","Opened in 2003","Unclimbed",1,0,0,0,0,"All","","","Unclimbed","",NA,NA
"331","PATR","Patrasi Himal","Nepal only","Kande Hiunchuli North",6450,21161,"Kanjiroba","Far West-Kanjiroba","","Unclimbed",1,0,0,0,0,"All","","","Unclimbed","",NA,NA
"332","PAWR","Pawar Central","Nepal only","Chaar Baatsa",6621,21722,"Peri","Annapurna-Damodar-Peri","","Climbed",0,1,0,0,2015,"Spring","May 09","France","Paulo Grobel, Frank Bonhomme, Christian Hurgon, Dhan Bahadur Magar, Dipen  Nuppa Bhote, Jangbu Sherpa, Rajan Lama Bhote","",19.2132661,72.960605708468
"333","PBUK","Pabuk Kang","Nepal & China","Kangata",6244,20486,"Janak/Ohmi Kangri","Kangchenjunga-Janak","Opened in 2003","Unclimbed",1,0,0,0,0,"All","","","Unclimbed","",NA,NA
"334","PEMK","Pemthang Karpo Ri","Nepal & China","Dome Blanc, Kan Karmo",6865,22523,"Jugal","Langtang-Jugal","Opened in 2014","Climbed",1,0,0,0,1955,"Spring","May 14","Switzerland, Nepal","Raymond Lambert, Ang Norbu Sherpa, Kami Tshering Sherpa, Pasang Sherpa, Pemba Gyaltzen Sherpa","",28.2491141,85.7479044
"335","PERH","Peri Himal","Nepal & China","",6296,20656,"Peri","Annapurna-Damodar-Peri","Opened in 2014","Unclimbed",1,0,0,0,0,"All","","","Unclimbed","",28.7426753,84.4363794606874
"336","PERI","Peri","Nepal & China","",6174,20256,"Langtang","Langtang-Jugal","Opened in 2014","Climbed",1,0,0,0,2016,"Autumn","Dec 06","Italy, Nepal","Werner Frei, Pasang Sherpa, Sandesh Sherpa","",42.0049775,8.920963
"337","PETH","Pethangtse","Nepal & China","",6739,22110,"Khumbu","Khumbu-Rolwaling-Makalu","Opened in 2002","Climbed",1,0,0,0,1954,"Spring","May 26","New Zealand, Nepal","Michael Ball, Norman Hardie, Brian Wilkins, Urkien Sherpa","",27.957236,87.0152042
"338","PHAR","Pharilapcha","Nepal only","",6017,19741,"Khumbu","Khumbu-Rolwaling-Makalu","Opened in 2002","Climbed",0,0,1,2002,2003,"Spring","May 19","Nepal","Dinesh Devkota, Ongchu Sherpa, Namgyal Sherpa, Lhakpa Sherpa","",NA,NA
"339","PHNG","Phungi","Nepal & China","",6524,21404,"Peri","Annapurna-Damodar-Peri","Opened in 2014","Unclimbed",1,0,0,0,0,"All","","","Unclimbed","",36.89142,128.50935
"340","PHNH","Phungi Himal","Nepal only","",6538,21450,"Manaslu/Mansiri","Manaslu-Ganesh","Opened in 2003","Climbed",1,0,0,0,2017,"Autumn","Oct 28","Russia","Yuri Koshelenko, Akeksei Lonchinskiy","",NA,NA
"341","PHOL","Phole","Nepal only","",6645,21801,"Kangchenjunga/Simhalila","Kangchenjunga-Janak","Opened in 2002","Unclimbed",1,0,0,0,0,"All","","","Unclimbed","",27.6865303,88.0078697
"342","PHUG","Phu Kang Go","Nepal & China","Phu Khang Go, Athahra Saya Khola Himal",6767,22201,"Peri","Annapurna-Damodar-Peri","Opened in 2014","Climbed",1,0,0,0,2011,"Autumn","Oct 27","France, Belgium","Paulo Grobel, Benoit Van Lerberghe","",22.6854791,112.220149
"343","PHUK","Phu Kang","Nepal & China","Phu Khang",6694,21962,"Peri","Annapurna-Damodar-Peri","Opened in 2003","Unclimbed",1,0,0,0,0,"All","","","Unclimbed","",27.502232,116.415177
"344","PHUN","Phu Kang North","Nepal & China","Phu Khang North",6580,21588,"Peri","Annapurna-Damodar-Peri","Opened in 2014","Unclimbed",1,0,0,0,0,"All","","","Unclimbed","",22.702697,112.2227508
"345","PHUR","Phurbi Chhyachu","Nepal & China","Phurbi Ghyachu",6637,21775,"Jugal","Langtang-Jugal","","Climbed",1,0,0,0,1982,"Spring","May 01","Japan, Nepal","Shintaro Kurokawa, Fumihito Ogawa, Hiromitsu Okamoto, Takashi Shingaki, Hajime Takigami, Ang Phuri Lama, Pemba Lama Sherpa","",28.1260087,85.8674922
"346","PIMU","Pimu","Nepal only","Pamalka",6344,20814,"Rolwaling","Khumbu-Rolwaling-Makalu","","Climbed",0,1,0,0,1955,"Spring","Apr","UK","Peter Boultbee, Dennis Davis","",1.83870975,21.1110836823298
"347","PISA","Pisang","Nepal only","Jong Ri",6091,19984,"Damodar","Annapurna-Damodar-Peri","","Climbed",0,0,1,1978,1955,"Spring","Jun 10","W Germany","Juergen Wellenkamp","",3.9610848,107.9790697
"348","PK04","Peak 4","Nepal only","Shershon Ri",6736,22100,"Khumbu","Khumbu-Rolwaling-Makalu","Opened in 2003","Unclimbed",1,0,0,0,0,"All","","","Unclimbed","",39.5216376,-106.1213832
"349","PK29","Peak 29","Nepal only","Ngadi Chuli, Dakura, Dr Harka Gurung Chuli",7871,25823,"Manaslu/Mansiri","Manaslu-Ganesh","","Climbed",1,0,0,0,1979,"Spring","May 08","Poland","Ryszard Gajewski, Maciej Pawlikowski","1st ascent claimed by Japan (Sumiyoshi) in 1970 (summiters killed in descent)",40.84262945,-73.0809699975639
"350","PK41","Peak 41","Nepal only","",6648,21811,"Khumbu","Khumbu-Rolwaling-Makalu","Opened in 2002","Climbed",1,0,0,2002,2002,"Autumn","Oct 16","Slovenia","Matic Jost, Urban Golob, Uros Samec","Rumored that two Americans and two Swiss (and possibly others) summited in earlier years",27.7743642,86.9080353
"351","PKAR","Pankar Himal","Nepal & China","",6264,20551,"Manaslu/Mansiri","Manaslu-Ganesh","Opened in 2014","Climbed",1,0,0,0,2018,"Spring","May 08","Japan","Yasuhiro Hanatani, Reo Chikara, Ryosuke Matsuyama, Daijo Saito, Tatsuro Sugimoto, Airi Watanabe","",NA,NA
"352","PLNG","Palung","China only","Palung Ri",7012,23005,"Khumbu","Khumbu-Rolwaling-Makalu","Peak entirely within China","Climbed",0,1,0,0,1952,"Spring","May 13","New Zealand","Edmund Hillary, George Lowe","",27.648982,85.0701319404293
"353","POIN","Pointed Peak","Nepal only","",5850,19193,"Khumbu","Khumbu-Rolwaling-Makalu","","Climbed",0,1,0,0,1953,"Spring","Apr 01","UK","Wilfred Noyce, Michael Ward, Charles Wylie","",14.8566915,120.1259478
"354","POKA","Pokalde","Nepal only","",5780,18963,"Khumbu","Khumbu-Rolwaling-Makalu","","Climbed",0,0,1,1978,1953,"Spring","Apr 15","UK","Tom Bourdillon, Wilfred Noyce, Michael Ward","",27.9247682,86.8331902
"355","POKR","Pokharkang","Nepal only","Pokhar Khang",6372,20906,"Damodar","Annapurna-Damodar-Peri","Opened in 2002","Climbed",1,0,0,0,2002,"Autumn","Nov 17","UK, Nepal","Richard Scott, Dave Wynne-Jones, Kaji Sherpa","Japanese team led by Koichi Kato climbed NW Smt on Oct 31, 2002 [which they thought was the highest]",NA,NA
"356","POTA","Pota Himal North","Nepal only","Peak Hawley",6182,20282,"Dhaulagiri","Dhaulagiri-Mukut","Opened in 2014","Climbed",1,0,0,0,2008,"Spring","May 09","France","Francois Damilano","",NA,NA
"357","PTHE","Pethangtse East","Nepal & China","",6572,21562,"Khumbu","Khumbu-Rolwaling-Makalu","Opened in 2014","Climbed",1,0,0,0,2008,"Spring","May 16","UK","Andrew Hughes, Alistair Barnard, Nichcolas Beighton, Chris Fawcett, Daniel Greig-Smith, Benjamin Sherwood","Climbed by British Services Makalu Expedition led by Andrew Hughes",NA,NA
"358","PUCH","Punchen Himal","Nepal & China","Puchen Himal",6049,19846,"Ganesh/Shringi","Manaslu-Ganesh","","Unclimbed",1,0,0,0,0,"All","","","Unclimbed","",NA,NA
"359","PUMO","Pumori","Nepal & China","",7138,23419,"Khumbu","Khumbu-Rolwaling-Makalu","","Climbed",1,0,0,0,1962,"Spring","May 17","W Germany, Switzerland","Gerhard Lenser, Ernst Farrer, Ueli Huerlemann, Hans Ruetzel","",28.0160417,86.8273988
"360","PURB","Purbung Himal","Nepal only","Putrung",6500,21325,"Damodar","Annapurna-Damodar-Peri","Opened in 2002","Unclimbed",1,0,0,0,0,"All","","","Unclimbed","",NA,NA
"361","PURK","Purkhung","Nepal only","Purkhang, Purkung",6126,20098,"Damodar","Annapurna-Damodar-Peri","Opened in 2002","Climbed",1,0,0,0,2004,"Summer","Aug 16","Japan","Yuchiro Ishihara, Satoru Endo, Hirayusu Hatsushiya, Teryuki Iwasaki, Terukai Kubo, Kazuko Takano, Hiroshi Yumoto, Ang Kami, Da Chhemba, Gelu, Lhakpa Tenzi, Pema Tenji, Wongchu Sherpas","",NA,NA
"362","PUTH","Putha Hiunchuli","Nepal only","Dhaulagiri VII",7246,23773,"Dhaulagiri","Dhaulagiri-Mukut","","Climbed",1,0,0,0,1954,"Autumn","Nov 11","UK, Nepal","J. O. M. Roberts, Ang Nyima Sherpa","",28.7482046,83.1462685
"363","PYRM","Pyramid Peak","Nepal & India","Pathibhara Chuli, Pathibhara Khas",7140,23425,"Jongsang","Kangchenjunga-Janak","","Climbed",1,0,0,0,1993,"Spring","Apr 24","Japan, India","Yoshio Ogata, Jot Singh Bhandari, Hiroshi Iwazaki, Phurba Lepcha, Sunder Singh Martolia, Lobsang Sherpa, Nobuhiro Shingo","1st ascent claimed by Swiss (Sutter) in 1949 but reached secondary summit",39.0716572,-106.950112
"364","RAKS","Raksha Urai","Nepal only","Raksha Urai III",6609,21683,"Api/Byas Risi/Guras","Far West-Kanjiroba","","Climbed",1,0,0,0,2003,"Autumn","Oct 15","France, Nepal","Arnaud Clere, Catherine Couland, Gael Faroux, Keshab Raj Gurung","",NA,NA
"365","RAMC","Ramtang Chang","Nepal only","Wedge Peak, Chang Himal",6802,22316,"Kangchenjunga/Simhalila","Kangchenjunga-Janak","Opened in 2002","Climbed",1,0,0,0,1974,"Autumn","Oct 05","Yugoslavia","Janez Gradisar, Bojan Pollak, Michael Smolej","Illegal ascent",NA,NA
"366","RAMD","Ramdung","Nepal only","Ramdong Go",5900,19357,"Rolwaling","Khumbu-Rolwaling-Makalu","","Climbed",0,0,1,1978,1952,"Autumn","Oct","UK, Nepal","Tom MacKinnon, Dawa Tenzing Sherpa, Mingma Sherpa","",30.7033295,77.7586234
"367","RAMT","Ramtang","Nepal only","",6601,21657,"Kangchenjunga/Simhalila","Kangchenjunga-Janak","Opened in 1997","Climbed",1,0,0,0,1930,"Spring","May","Austria, UK","Erwin Schneider, Frank Smythe","",NA,NA
"368","RANI","Rani Peak","Nepal only","Lidanda Peak, Himalchuli Northeast",6693,21959,"Manaslu/Mansiri","Manaslu-Ganesh","","Climbed",0,1,0,0,1970,"Spring","May 05","Netherlands, Nepal","Herman Tollenaar, Ang Phurba Sherpa, Mingma Tsering Sherpa, Nima Dorje Sherpa","",63.67903,-19.40535
"369","RATC","Ratna Chuli","Nepal & China","",7035,23081,"Peri","Annapurna-Damodar-Peri","Opened in 2002","Climbed",1,0,0,0,1996,"Autumn","Oct 14","Japan, Nepal","Osamu Tanabe, Santa Bahadur Ale, Katsuhiko Sawada, Durge Bahadur Tamang, Tul Bahadur Tamang","",NA,NA
"370","RATH","Rathong","Nepal & India","",6682,21923,"Kangchenjunga/Simhalila","Kangchenjunga-Janak","","Climbed",1,0,0,0,1964,"Autumn","Oct 29","India","H. P. S. Ahluwalia, Ang Kami Sherpa, Dorje Latoo Sherpa, Nawang Gombu Sherpa","",27.5946131,88.0897953
"371","RAUN","Raungsiyar","Nepal only","",6224,20420,"Rolwaling","Khumbu-Rolwaling-Makalu","Opened in 2014","Climbed",1,0,0,0,2015,"Autumn","Oct 04","Nepal","Dawa Gyalje Sherpa, Nima Tenji Sherpa, Tashi Sherpa","",NA,NA
"372","RHIM","Rhimbu","Nepal only","",6210,20374,"Ganesh/Shringi","Manaslu-Ganesh","Opened in 2014","Unclimbed",1,0,0,0,0,"All","","","Unclimbed","",NA,NA
"373","RIPI","Ripimo Shar","Nepal & China","Khang Karpo, Kang Karpo",6647,21808,"Rolwaling","Khumbu-Rolwaling-Makalu","Opened in 2014 (as Khang Karpo)","Climbed",1,0,0,0,1952,"Spring","May 29","UK","Tom Bourdillon, Ray Colledge","",NA,NA
"374","ROCN","Roc Noir","Nepal only","Khangsar Kang, Khang Sar Khang",7485,24557,"Annapurna","Annapurna-Damodar-Peri","","Climbed",1,0,0,0,1969,"Spring","May 09","W Germany","Reinhold Obster, Pit Schubert, Karl Winkler","",43.6123408,2.9560569
"375","ROKA","Rokapi","Nepal only","Kapchuli",6468,21220,"Api/Byas Risi/Guras","Far West-Kanjiroba","Opened in 2002","Climbed",1,0,0,0,1977,"Autumn","Oct 10","UK","Thomas Herley, Kelvin McLane","",NA,NA
"376","ROLK","Rolwaling Kang","Nepal only","Rolwaling Khang",6664,21864,"Rolwaling","Khumbu-Rolwaling-Makalu","Opened in 2014","Climbed",1,0,0,0,2016,"Autumn","Oct 19","Japan","Yasuhiro Hanatani, Yuichiro Iida, Maho Ishio, Yohei Kayama, Keisuke Tsunoda, Takuya Yoshikawa","",NA,NA
"377","ROLM","Rolmi","Nepal only","",6056,19869,"Ganesh/Shringi","Manaslu-Ganesh","Opened in 2014","Climbed",1,0,0,0,2017,"Autumn","Oct 01","Nepal","Narendra Shahi, Iman Gurung, Samir Gurung","",NA,NA
"378","ROMA","Roma","Nepal only","",5407,17740,"Saipal","Far West-Kanjiroba","Delisted in 2014","Unclimbed",1,0,0,0,0,"All","","","Unclimbed?","",41.8933203,12.4829321
"379","SAIE","Saipal East Humla","Nepal only","",6925,22720,"Saipal","Far West-Kanjiroba","","Climbed",1,0,0,0,1990,"Autumn","Oct 26","Switzerland, Nepal","Jacques Montaz, Tendi Sherpa","Saipal East Humla is a subpeak on the NE Ridge of Saipal",NA,NA
"380","SAIP","Saipal","Nepal only","",7030,23064,"Saipal","Far West-Kanjiroba","","Climbed",1,0,0,0,1963,"Autumn","Oct 21","Japan, Nepal","Katsuotoshi Hirabayashi, Pasang Phutar Sherpa (I)","",29.85556255,81.2983408898985
"381","SALD","Saldim","Nepal & China","Peak 5",6374,20912,"Makalu","Khumbu-Rolwaling-Makalu","Opened in 2003","Unclimbed",1,0,0,0,0,"All","","","Unclimbed","",27.8225338,87.169512
"382","SALW","Saldim West","Nepal & China","Peak 5, Saldim Ri, Yaphu Ri",6388,20958,"Makalu","Khumbu-Rolwaling-Makalu","Opened in 2003","Climbed",1,0,0,0,2016,"Autumn","Nov 01","Romania","Vlad Capusan, Zolt Torok","",27.824774,87.1567343
"383","SAMD","Samdo","Nepal & China","",6335,20784,"Manaslu/Mansiri","Manaslu-Ganesh","Opened in 2003","Climbed",1,0,0,0,2009,"Autumn","Oct 20","Japan","Yasuke Kuramoto, Yoshitaka Kameoka, Kohei Kotani, Seiya Nakasukasa, Daisuke Nakatsuka, Hiroki Yamamoto","",28.6364017,84.6946649
"384","SANB","Sano Bhrikuti","Nepal only","",6328,20761,"Damodar","Khumbu-Rolwaling-Makalu","","Climbed",0,1,0,0,2017,"Spring","","Switzerland","Erwin Jacomet, et al.","Made ski descent",27.7182444,85.3294861
"385","SANC","Sanctuary Peak","Nepal only","",6207,20364,"Kanjiroba","Far West-Kanjiroba","Opened in 2014","Unclimbed",1,0,0,0,0,"All","","","Unclimbed","",-34.2617,18.8783
"386","SANK","Sano Kailash","Nepal only","",6452,21168,"Damodar","Annapurna-Damodar-Peri","","Climbed",0,1,0,0,2019,"Spring","Apr 28","Austria, Nepal","Wolfgang Drexler, Lawang Tamang","",27.675545,85.3609485
"387","SARI","Saribung","Nepal only","Selibung",6328,20761,"Damodar","Annapurna-Damodar-Peri","Opened in 2002","Climbed",1,0,0,0,2003,"Autumn","Oct 15","USA","Jim Frush, Steve Furman","",28.885,84.1719123
"388","SATO","Sat Peak","Nepal only","Sato Peak",6164,20223,"Janak/Ohmi Kangri","Kangchenjunga-Janak","Opened in 2002","Unclimbed",1,0,0,0,0,"All","","","Unclimbed?","Possibly climbed by Japanese in 1960s as Nupchu",27.7258952,85.3541032714174
"389","SAUL","Saula","Nepal & China","",6235,20456,"Manaslu/Mansiri","Manaslu-Ganesh","Opened in 2014","Unclimbed",1,0,0,0,0,"All","","","Unclimbed","",46.8518185,23.0755903
"390","SHA2","Shartse II","Nepal & China","Junction Peak",7457,24465,"Khumbu","Khumbu-Rolwaling-Makalu","","Climbed",1,0,0,0,1974,"Spring","May 23","Austria, W Germany","Kurt Diemburger, Hermann Warth","",27.9496738,86.9833813
"391","SHAL","Shalbachum","Nepal & China","Salbachum, Phrul Rangtshan Ri",6707,22005,"Langtang","Langtang-Jugal","Opened in 2003","Climbed",1,0,0,0,1959,"Autumn","Oct 25","Japan, Nepal","Sadao Hojo, Tetsuro Terahata, Dawa Thondup Sherpa, Pasang Temba Sherpa","",28.2709798,85.6304978
"392","SHAR","Shartse","Nepal & China","Peak 38, Shanti Shikhar",7591,24905,"Khumbu","Khumbu-Rolwaling-Makalu","","Unclimbed",1,0,0,0,0,"All","","","Unclimbed","",27.9555911,86.9651449
"393","SHER","Shershon","Nepal & China","Peak 3",6432,21102,"Makalu","Khumbu-Rolwaling-Makalu","Opened in 2003","Unclimbed",1,0,0,0,0,"Spring","","","Unclimbed","",NA,NA
"394","SHEY","Shey Shikhar","Nepal only","Junction Peak",6139,20141,"Kanjiroba","Far West-Kanjiroba","","Climbed",1,0,0,0,2007,"Summer","Aug 23","Japan","Katsuhito Fujikawa","",NA,NA
"395","SHNW","Shershon Northwest","Nepal & China","",6682,21923,"Makalu","Khumbu-Rolwaling-Makalu","Opened in 2014","Climbed",1,0,0,0,1980,"Autumn","Oct 15","UK, France","Doug Scott, Roger Baxter-Jones, Georges Bettembourg","",NA,NA
"396","SIMN","Simnang Himal","Nepal only","P2, Simnang Himal East",6251,20509,"Manaslu/Mansiri","Manaslu-Ganesh","Opened in 2001","Climbed",1,0,0,0,2001,"Spring","May 16","Ukraine","Mistislav Gorbenko, Vadim Leontiev, Sergei Pugachov, Mykhaylo Zagirnyak","",NA,NA
"397","SING","Singu Chuli","Nepal only","Fluted Peak",6501,21329,"Annapurna","Annapurna-Damodar-Peri","","Climbed",0,0,1,1978,1957,"Spring","Jun 13","UK","David Cox, Wilfred Noyce","",NA,NA
"398","SISN","Sisne Himal","Nepal only","Hiunchuli Patan",5911,19393,"Kanjiroba","Far West-Kanjiroba","","Climbed",1,0,0,0,2013,"Spring","May 26","Nepal, USA","Man Bahadur Khatri, Alonzo Lyons, Dbruba Bista, Mulal Gurung, Nilam Gurung, Ali Bahadur Khatri, Vinaya Jaya Malla, Amrit Sarki","",NA,NA
"399","SITA","Sita Chuchura","Nepal only","",6611,21690,"Mukut/Mustang","Dhaulagiri-Mukut","","Climbed",1,0,0,0,1970,"Autumn","Oct 26","Japan, Nepal","Masahiko Takahashi, Hiroshi Harada, Nobuyki Hirato, Phurba Kitar Sherpa","",28.782078,83.4838316
"400","SNOW","Snow Peak","Nepal only","",6530,21424,"Dhaulagiri","Dhaulagiri-Mukut","","Unclimbed",0,1,0,0,0,"All","","","Unclimbed","",34.0377902,-116.8141862
"401","SOBI","Sobithongie","Nepal only","",6652,21824,"Kangchenjunga/Simhalila","Kangchenjunga-Janak","Opened in 2002","Unclimbed",1,0,0,0,0,"All","","","Unclimbed","",NA,NA
"402","SPH1","Sharphu I","Nepal only","Tanga I",6433,21106,"Janak/Ohmi Kangri","Kangchenjunga-Janak","Opened in 2002","Climbed",1,0,0,0,1963,"Autumn","Oct 22","Japan","Takao Ishinabe, Chiharu Miyamoto, Yuzo Tatsumi","",NA,NA
"403","SPH2","Sharphu II","Nepal only","Tanga II",6328,20761,"Janak/Ohmi Kangri","Kangchenjunga-Janak","Opened in 2002","Climbed",1,0,0,0,201,"Autumn","Oct 26","USA","Aivaras Sajus, Spencer Gray","",NA,NA
"404","SPH3","Sharphu III","Nepal only","Marson",6220,20407,"Janak/Ohmi Kangri","Kangchenjunga-Janak","Opened in 2002","Unclimbed",1,0,0,0,0,"All","","","Unclimbed?","",NA,NA
"405","SPH4","Sharphu IV","Nepal only","Nupchu",6172,20249,"Janak/Ohmi Kangri","Kangchenjunga-Janak","Opened in 2002","Climbed",1,0,0,0,1962,"Spring","May 20","Japan","Takayuki Tsubaki, Chotare Sherpa","",NA,NA
"406","SPH5","Sharphu V","Nepal only","Tanga III",6158,20203,"Janak/Ohmi Kangri","Kangchenjunga-Janak","Opened in 2002","Unclimbed",1,0,0,0,0,"All","","","Unclimbed?","",NA,NA
"407","SPH6","Sharphu VI","Nepal only","",6076,19934,"Janak/Ohmi Kangri","Kangchenjunga-Janak","Opened in 2002","Unclimbed",1,0,0,0,0,"All","","","Unclimbed?","",NA,NA
"408","SPHN","Sphinx","Nepal & India","Pathibhara Phurba, Pathibhara East",6825,22392,"Jongsang","Kangchenjunga-Janak","Opened in 2014","Climbed",1,0,0,0,1936,"Spring","Jun","UK","J. K. Cooke, Frederick S. Chapman, John B. Harrison","",29.97526215,31.1375348773128
"409","SRKU","Serku Dolma","Nepal only","",6227,20430,"Kanjiroba","Far West-Kanjiroba","","Climbed",0,1,0,0,1973,"Autumn","Oct 30","Japan, Nepal","Eiken Moriyama, Morihiro Takechi, Anu Sherpa","",NA,NA
"410","SURM","Surma-Sarovar North","Nepal only","",6564,21535,"Api/Byas Risi/Guras","Far West-Kanjiroba","","Unclimbed",1,0,0,0,0,"All","","","Unclimbed","",NA,NA
"411","SWAK","Swaksa Kang","Nepal & China","",6405,21014,"Kanti/Palchung","Far West-Kanjiroba","Opened in 2003","Unclimbed",1,0,0,0,0,"All","","","Unclimbed","",NA,NA
"412","SWEL","Swelokhan","Nepal & China","",6180,20276,"Manaslu/Mansiri","Manaslu-Ganesh","Opened in 2003","Unclimbed",1,0,0,0,0,"All","","","Unclimbed","",NA,NA
"413","SYKG","Syaokang","Nepal only","",5929,19452,"Janak/Ohmi Kangri","Kangchenjunga-Janak","","Climbed",1,0,0,0,2012,"Autumn","Oct 25","New Zealand","John Cocks, Martin Hunter, Geoffrey Lamarche, Paul Maxim, Nick Schearer","",NA,NA
"414","TAKL","Takla Kang","Nepal & China","Takla Khang",6276,20591,"Kanti/Palchung","Far West-Kanjiroba","Opened in 2014","Unclimbed",1,0,0,0,0,"All","","","Unclimbed","",NA,NA
"415","TAKN","Takphu North","Nepal & China","",6142,20151,"Nalakankar/Chandi/Changla","Far West-Kanjiroba","Opened in 2014","Climbed",1,0,0,0,2016,"Autumn","Oct 12","Germany, Nepal","Herbert Bader, Karl Henge, Tassilo Hock, Josef Knitz, Annabelle Rochelt, Alois Sinz, Bhai Krishna Khadka","",NA,NA
"416","TAKP","Takphu Himal","Nepal & China","",6395,20981,"Nalakankar/Chandi/Changla","Far West-Kanjiroba","Opened in 2003","Climbed",1,0,0,0,2018,"Autumn","Oct 11","UK, Germany","Ed Douglas, Christof Nettekoven, Bruce Normand","",NA,NA
"417","TANK","Tankya I","Nepal & China","",6305,20686,"Kanti/Palchung","Far West-Kanjiroba","Opened in 2014","Unclimbed",1,0,0,0,0,"All","","","Unclimbed","",NA,NA
"418","TAPL","Taple Shikhar","Nepal only","Cross Peak",6447,21152,"Kangchenjunga/Simhalila","Kangchenjunga-Janak","Opened in 2002","Climbed",1,0,0,0,1998,"Autumn","Oct 08","Japan, Nepal","Misako Miyazawa, Gumba Sherpa, Kancha Sunwar Sherpa, Pemba Lama Sherpa","",NA,NA
"419","TASH","Tashi Kang","Nepal only","Tashi Khang",6386,20951,"Mukut/Mustang","Dhaulagiri-Mukut","Opened in 2002","Climbed",1,0,0,0,2002,"Summer","Aug 14","Japan, Nepal","Yasue Mogi, Gyalzen Sherpa","",28.8547343,119.4039832
"420","TAWA","Tawa","Nepal only","",6110,20046,"Damodar","Annapurna-Damodar-Peri","","Climbed",0,1,0,0,2010,"Autumn","Oct 21","Japan, Nepal","Mikio Iga, Kazuya Fujikura, Chhongba Sherpa, Lhakpa Sherpa","",53.4631552,-113.427559
"421","TAWO","Tawoche","Nepal only","Taboche",6495,21309,"Khumbu","Khumbu-Rolwaling-Makalu","","Climbed",1,0,0,0,1974,"Spring","Apr 15","France","Louis Dubost, Paul Gendre","",27.8973138,86.7793702
"422","TENG","Tengkoma","Nepal only","Tang Kongma",6215,20390,"Jongsang","Kangchenjunga-Janak","Opened in 1997","Climbed",1,0,0,0,1949,"Spring","Jun 17","Switzerland, Nepal","Alfred Sutter, Rene Dittert, Annelies Lohner, Jacob Pargaetzi-Almer, Edouard Wyss-Dunant, Pasang Sherpa","",NA,NA
"423","TENR","Tengi Ragi Tau","Nepal only","Agole, Angole",6938,22762,"Rolwaling","Khumbu-Rolwaling-Makalu","Opened in 2002","Climbed",1,0,0,0,2002,"Winter","Dec 04","Japan, Nepal","Koichi Ezaki, Ruchia Takahashi, Pasang Tamang, Tul Bahadur Tamang","",27.8578094,86.5532262
"424","THAM","Thamserku","Nepal only","Tramserku",6618,21713,"Khumbu","Khumbu-Rolwaling-Makalu","","Climbed",1,0,0,0,1964,"Autumn","Nov 04","New Zealand","Lynn Crawford, Peter Farrell, John McKinnon, Richard Stewart","",27.7898577,86.785298
"425","THAR","Tharpu Chuli","Nepal only","Tent Peak",5695,18684,"Annapurna","Annapurna-Damodar-Peri","","Climbed",0,0,1,1978,1964,"Autumn","Oct 23","Japan","Masaaki Kimura, Kiyoo Shimada","",NA,NA
"426","THOC","Thoche Go","Nepal & China","",6602,21660,"Peri","Annapurna-Damodar-Peri","Opened in 2014","Unclimbed",1,0,0,0,0,"All","","","Unclimbed","",28.6512935,84.4674494
"427","THOR","Thorong Peak","Nepal only","Thorung Peak",6144,20157,"Annapurna","Annapurna-Damodar-Peri","","Climbed",1,0,0,0,2007,"Autumn","Nov 08","Japan, Nepal","Satoru Endo, Mikio Iga, Terue Katakura, Mitsukuni Oka, Rikio Takahashi, Hiroshi Yumoto, Gadjet Bis Gurung, Ang Dawa Tamang, Hit Bahadur Tamang, Pasang Tamang","1st official ascent (likely many others previously)",28.7819689,83.9268777
"428","THRK","Tharke Kang","Nepal & China","Tharke Khang",6710,22014,"Khumbu","Khumbu-Rolwaling-Makalu","Opened in 2014","Climbed",1,0,0,0,2017,"Autumn","Nov 03","USA, Nepal","Garrett Madison, Kristin Bennett, Lisa Thompson, Ang Phurba Sherpa, Lhakpa Dendi Sherpa, Pasang Dawa Sherpa, Tashi Sherpa","",28.045283,86.7490845
"429","THUL","Thulagi","Nepal only","Mansiri Himal",7059,23159,"Manaslu/Mansiri","Manaslu-Ganesh","Opened in 2003","Climbed",1,0,0,0,2015,"Autumn","Sep 26","Russia","Alexander Gukov, Ivan Dozhdev, Ruslan Kirichenko, Valeri Shamalo","",28.51903395,84.5460870398599
"430","TILI","Tilicho","Nepal only","Tilitso",7134,23406,"Annapurna","Annapurna-Damodar-Peri","","Climbed",1,0,0,0,1978,"Autumn","Oct 10","France","Emmanuel Schmutz","Reinhold Messner claimns first ascent in autumn of 1971",60.2625935,24.8537182
"431","TILJ","Tilje","Nepal only","",6530,21424,"Peri","Annapurna-Damodar-Peri","Opened in 2002","Unclimbed",1,0,0,0,0,"All","","","Unclimbed","",59.47805,11.2763056
"432","TILK","Til Kang","Nepal & China","",6369,20896,"Nalakankar/Chandi/Changla","Far West-Kanjiroba","Opened in 2003","Climbed",1,0,0,0,2018,"Autumn","Oct 15","UK","Ed Douglas, Bruce Normand","",47.5155368,5.1753631
